{
  "version": 0.6,
  "generator": "Overpass API 0.7.59.4 36d058c8",
  "osm3s": {
    "timestamp_osm_base": "2023-03-26T18:52:09Z",
    "timestamp_areas_base": "2023-03-26T14:41:54Z",
    "copyright": "The data included in this document is from www.openstreetmap.org. The data is made available under ODbL."
  },
  "elements": [

    {
      "type": "node",
      "id": 548034,
      "lat": 44.7781364,
      "lon": 5.9855985,
      "tags": {
        "name": "La Trinité",
        "place": "hamlet",
        "population": "300"
      }
    },
    {
      "type": "node",
      "id": 550180,
      "lat": 44.8889900,
      "lon": 5.8242747,
      "tags": {
        "name": "Les Terrasses",
        "place": "hamlet",
        "population": "200"
      }
    },
    {
      "type": "node",
      "id": 550199,
      "lat": 44.8756567,
      "lon": 5.8340619,
      "tags": {
        "name": "Les Égâts",
        "place": "hamlet",
        "population": "20"
      }
    },
    {
      "type": "node",
      "id": 550264,
      "lat": 44.8547367,
      "lon": 5.8587325,
      "tags": {
        "name": "Les Marcoux",
        "place": "hamlet",
        "population": "20"
      }
    },
    {
      "type": "node",
      "id": 14761317,
      "lat": 45.3884116,
      "lon": 2.9223970,
      "tags": {
        "addr:postcode": "63850",
        "name": "La Godivelle",
        "name:oc": "La Gaudivela",
        "place": "village",
        "population": "16",
        "source:name:oc": "ieo-bdtopoc"
      }
    },
    {
      "type": "node",
      "id": 17330422,
      "lat": 45.0283951,
      "lon": 2.5811651,
      "tags": {
        "addr:postcode": "15590",
        "name": "Saint-Cirgues-de-Jordanne",
        "name:oc": "Sant Cirgue de Jordana",
        "name:uk": "Сен-Сірг-де-Жорданн",
        "place": "village",
        "population": "144",
        "ref:FR:SIREN": "211501788",
        "source:name:oc": "ieo-bdtopoc",
        "wikidata": "Q808286",
        "wikipedia": "fr:Saint-Cirgues-de-Jordanne"
      }
    },
    {
      "type": "node",
      "id": 20986499,
      "lat": 45.2189925,
      "lon": 3.6488954,
      "tags": {
        "addr:postcode": "43270",
        "name": "La Chapelle-Bertin",
        "name:oc": "La Chapèla Bertin",
        "place": "village",
        "population": "50",
        "source:name:oc": "ieo-bdtopoc",
        "source:population": "INSEE 2016",
        "wikidata": "Q1065875",
        "wikipedia": "fr:La Chapelle-Bertin"
      }
    },
    {
      "type": "node",
      "id": 25251604,
      "lat": 45.9441933,
      "lon": 4.5288106,
      "tags": {
        "addr:postcode": "69620",
        "name": "Ternand",
        "place": "village",
        "population": "670",
        "source:population": "INSEE 2016",
        "website": "https://ternand.fr",
        "wikidata": "Q1969",
        "wikipedia": "fr:Ternand"
      }
    },
    {
      "type": "node",
      "id": 26679524,
      "lat": 44.9416675,
      "lon": 5.7641879,
      "tags": {
        "name": "Le Crey",
        "place": "hamlet",
        "population": "500"
      }
    },
    {
      "type": "node",
      "id": 26698533,
      "lat": 42.9678109,
      "lon": 1.1635881,
      "tags": {
        "name": "Eycheil",
        "name:oc": "Eishèlh",
        "place": "village",
        "population": "556",
        "ref:FR:SIREN": "210901195",
        "source:name:oc": "Lo Congrès",
        "source:population": "INSEE 2020"
      }
    },
    {
      "type": "node",
      "id": 26899001,
      "lat": 49.6839074,
      "lon": -1.9042283,
      "tags": {
        "addr:postcode": "50440",
        "name": "Jobourg",
        "name:fr": "Jobourg",
        "name:mk": "Жобур",
        "name:uk": "Жобур",
        "place": "village",
        "population": "495",
        "ref:FR:SIREN": "215002577",
        "source:population": "INSEE 2011",
        "website": "https://www.mairie-jobourg.fr/",
        "wikidata": "Q1087629",
        "wikipedia": "fr:Jobourg"
      }
    },
    {
      "type": "node",
      "id": 26899002,
      "lat": 49.6684279,
      "lon": -1.8792576,
      "tags": {
        "addr:postcode": "50440",
        "name": "Herqueville",
        "name:fr": "Herqueville",
        "name:mk": "Еркевил",
        "name:uk": "Еркевіль",
        "place": "village",
        "population": "157",
        "ref:FR:SIREN": "215002429",
        "source:population": "INSEE 2011",
        "wikidata": "Q1071474",
        "wikipedia": "fr:Herqueville (Manche)"
      }
    },
    {
      "type": "node",
      "id": 26899003,
      "lat": 49.7135519,
      "lon": -1.9303484,
      "tags": {
        "addr:postcode": "50440",
        "name": "Auderville",
        "name:fr": "Auderville",
        "name:uk": "Одервіль",
        "place": "village",
        "population": "261",
        "ref:FR:SIREN": "215000209",
        "source:population": "INSEE 2011",
        "wikidata": "Q474436",
        "wikipedia": "fr:Auderville"
      }
    },
    {
      "type": "node",
      "id": 26914691,
      "lat": 43.7424750,
      "lon": 7.0087789,
      "tags": {
        "addr:postcode": "06620",
        "name": "Courmes",
        "name:oc": "Cormes",
        "name:ru": "Курм",
        "place": "village",
        "population": "100",
        "ref:FR:SIREN": "210600490",
        "source:name:oc": "ieo-bdtopoc",
        "source:population": "INSEE 2013"
      }
    },
    {
      "type": "node",
      "id": 27088918,
      "lat": 45.4863198,
      "lon": 5.8350732,
      "tags": {
        "name": "Les Gros Louis",
        "place": "hamlet",
        "population": "300"
      }
    },
    {
      "type": "node",
      "id": 27088930,
      "lat": 45.4774793,
      "lon": 5.8279091,
      "tags": {
        "name": "Les Martins",
        "place": "hamlet",
        "population": "30"
      }
    },
    {
      "type": "node",
      "id": 27273287,
      "lat": 45.3348123,
      "lon": 3.2668536,
      "tags": {
        "addr:postcode": "43360",
        "name": "Lorlanges",
        "name:oc": "Lorlanja",
        "place": "village",
        "population": "364",
        "population:date": "2015-01-01",
        "source": "gns",
        "source:name:oc": "ieo-bdtopoc",
        "source:population": "INSEE"
      }
    },
    {
      "type": "node",
      "id": 27273356,
      "lat": 45.3304973,
      "lon": 3.0400629,
      "tags": {
        "addr:postcode": "63420",
        "name": "Anzat-le-Luguet",
        "name:oc": "Antiac dau Luguet",
        "place": "village",
        "population": "173",
        "source:name:oc": "ieo-bdtopoc"
      }
    },
    {
      "type": "node",
      "id": 27273433,
      "lat": 45.1561119,
      "lon": 2.9325724,
      "tags": {
        "addr:postcode": "15170",
        "name": "Chalinargues",
        "name:oc": "Chinargues",
        "name:uk": "Шалінарг",
        "place": "village",
        "population": "430",
        "source": "cadastre-dgi-fr source : Direction Générale des Impôts - Cadastre. Mise à jour : 2011",
        "source:name:oc": "ieo-bdtopoc",
        "source:population": "INSEE 2013",
        "wikidata": "Q804882",
        "wikipedia": "fr:Chalinargues"
      }
    },
    {
      "type": "node",
      "id": 27273435,
      "lat": 45.2489252,
      "lon": 2.6935258,
      "tags": {
        "addr:postcode": "15400",
        "name": "Apchon",
        "name:oc": "Apchon",
        "place": "village",
        "population": "212",
        "source:name:oc": "ieo-bdtopoc",
        "source:population": "INSEE 2013"
      }
    },
    {
      "type": "node",
      "id": 27278183,
      "lat": 45.1385878,
      "lon": 2.4943427,
      "tags": {
        "addr:postcode": "15140",
        "name": "Salers",
        "name:oc": "Salèrn",
        "name:uk": "Салер",
        "place": "village",
        "population": "368",
        "ref:FR:SIREN": "211502190",
        "source:name:oc": "ieo-bdtopoc",
        "wikidata": "Q658602",
        "wikipedia": "fr:Salers (Cantal)"
      }
    },
    {
      "type": "node",
      "id": 27278185,
      "lat": 45.1142771,
      "lon": 2.5028038,
      "tags": {
        "name": "Fontanges",
        "name:oc": "Fontanjas",
        "name:uk": "Фонтанж",
        "place": "village",
        "population": "214",
        "source:name:oc": "ieo-bdtopoc",
        "source:population": "INSEE 2013",
        "wikidata": "Q805307",
        "wikipedia": "fr:Fontanges"
      }
    },
    {
      "type": "node",
      "id": 27278200,
      "lat": 45.0534206,
      "lon": 2.7110252,
      "tags": {
        "addr:postcode": "15800",
        "name": "Saint-Jacques-des-Blats",
        "name:oc": "Sent Jacme dels Blats",
        "name:uk": "Сен-Жак-де-Бла",
        "place": "village",
        "population": "322",
        "source:name:oc": "ieo-bdtopoc",
        "source:population": "INSEE 2013",
        "wikidata": "Q808753",
        "wikipedia": "fr:Saint-Jacques-des-Blats"
      }
    },
    {
      "type": "node",
      "id": 30777645,
      "lat": 45.5705939,
      "lon": 5.7944875,
      "tags": {
        "addr:postcode": "73610",
        "name": "Novalaise le Lac",
        "place": "hamlet",
        "population": "50"
      }
    },
    {
      "type": "node",
      "id": 31422154,
      "lat": 43.7195336,
      "lon": 6.9787811,
      "tags": {
        "addr:postcode": "06620",
        "name": "Gourdon",
        "name:oc": "Gordon",
        "name:ru": "Гурдон",
        "place": "village",
        "population": "426",
        "ref:FR:SIREN": "210600680",
        "source:name:oc": "ieo-bdtopoc",
        "source:population": "INSEE 2013",
        "wikidata": "Q272364",
        "wikipedia": "fr:Gourdon (Alpes-Maritimes)"
      }
    },
    {
      "type": "node",
      "id": 31460208,
      "lat": 43.7832040,
      "lon": 6.9561088,
      "tags": {
        "addr:postcode": "06620",
        "name": "Cipières",
        "name:oc": "Cipieras",
        "place": "village",
        "population": "373",
        "source:name:oc": "ieo-bdtopoc",
        "source:population": "INSEE 2013"
      }
    },
    {
      "type": "node",
      "id": 31933485,
      "lat": 45.1562006,
      "lon": 3.5405995,
      "tags": {
        "addr:postcode": "43230",
        "name": "Saint-Georges-d'Aurac",
        "name:oc": "Sent Jòrgi d'Aurac",
        "place": "village",
        "population": "467",
        "population:date": "2015-01-01",
        "source:name:oc": "ieo-bdtopoc",
        "source:population": "INSEE"
      }
    },
    {
      "type": "node",
      "id": 31933683,
      "lat": 45.2301228,
      "lon": 3.4733339,
      "tags": {
        "addr:postcode": "43230",
        "name": "La Chomette",
        "name:oc": "La Chaumeta",
        "place": "village",
        "population": "154",
        "source:name:oc": "ieo-bdtopoc",
        "source:population": "INSEE 2016",
        "wikidata": "Q1065825",
        "wikipedia": "fr:La Chomette (Haute-Loire)"
      }
    },
    {
      "type": "node",
      "id": 32522128,
      "lat": 44.8463151,
      "lon": 6.4879385,
      "tags": {
        "addr:postcode": "05290",
        "alt_name": "Viera",
        "alt_name:oc": "Viera",
        "name": "Vallouise",
        "name:oc": "Vauloís",
        "place": "village",
        "population": "742",
        "ref:FR:SIREN": "210501755",
        "source:name:oc": "ieo-bdtopoc",
        "source:population": "INSEE 2013",
        "wikipedia": "fr:Vallouise"
      }
    },
    {
      "type": "node",
      "id": 32523419,
      "lat": 43.7951809,
      "lon": 6.9435947,
      "tags": {
        "addr:postcode": "06620",
        "name": "Gréolières",
        "name:ja": "グレオリエール",
        "name:oc": "Greulieras",
        "name:ru": "Греольер",
        "place": "village",
        "population": "559",
        "source:name:oc": "ieo-bdtopoc",
        "source:population": "INSEE 2013",
        "wikidata": "Q672657",
        "wikipedia": "fr:Gréolières"
      }
    },
    {
      "type": "node",
      "id": 34054980,
      "lat": 45.1925411,
      "lon": 5.3920415,
      "tags": {
        "addr:postcode": "38470",
        "name": "Beaulieu",
        "place": "village",
        "population": "626",
        "ref:FR:SIREN": "213800337",
        "source:population": "INSEE 2013",
        "wikipedia": "fr:Beaulieu (Isère)"
      }
    },
    {
      "type": "node",
      "id": 34055022,
      "lat": 45.0561000,
      "lon": 5.3731800,
      "tags": {
        "addr:postcode": "38680",
        "name": "Châtelus",
        "name:oc": "Chasteuluç",
        "place": "village",
        "population": "87",
        "ref:FR:SIREN": "213800923",
        "source:name:oc": "ieo-bdtopoc",
        "source:population": "INSEE 2013",
        "wikidata": "Q920639",
        "wikipedia": "fr:Châtelus (Isère)"
      }
    },
    {
      "type": "node",
      "id": 34055034,
      "lat": 45.0667609,
      "lon": 5.3916579,
      "tags": {
        "addr:postcode": "38680",
        "name": "Choranche",
        "name:oc": "Chaurança",
        "place": "village",
        "population": "131",
        "ref:FR:SIREN": "213801087",
        "source:name:oc": "ieo-bdtopoc",
        "source:population": "INSEE 2013",
        "wikipedia": "fr:Choranche"
      }
    },
    {
      "type": "node",
      "id": 34055040,
      "lat": 45.1708262,
      "lon": 5.4110040,
      "tags": {
        "addr:postcode": "38470",
        "name": "Cognin-les-Gorges",
        "place": "village",
        "population": "656",
        "ref:FR:SIREN": "213801178",
        "source:population": "INSEE 2013",
        "wikidata": "Q1003151",
        "wikipedia": "fr:Cognin-les-Gorges"
      }
    },
    {
      "type": "node",
      "id": 34055085,
      "lat": 45.5988000,
      "lon": 5.5875300,
      "tags": {
        "addr:postcode": "38490",
        "name": "Granieu",
        "place": "village",
        "population": "0",
        "ref:FR:SIREN": "213801830",
        "wikipedia": "fr:Granieu"
      }
    },
    {
      "type": "node",
      "id": 34055093,
      "lat": 45.1470589,
      "lon": 5.3749509,
      "tags": {
        "addr:postcode": "38160",
        "name": "Izeron",
        "place": "village",
        "population": "776",
        "ref:FR:SIREN": "213801954",
        "source:population": "INSEE 2013",
        "wikidata": "Q585692",
        "wikipedia": "fr:Izeron"
      }
    },
    {
      "type": "node",
      "id": 34055288,
      "lat": 45.0622000,
      "lon": 5.3425100,
      "tags": {
        "addr:postcode": "38680",
        "alt_name": "Borna , 1107",
        "name": "Pont-en-Royans",
        "name:oc": "Lo Pònt de Roians",
        "place": "village",
        "population": "835",
        "ref:FR:SIREN": "213803190",
        "source:name:oc": "ieo-bdtopoc",
        "source:population": "INSEE 2013"
      }
    },
    {
      "type": "node",
      "id": 34055291,
      "lat": 45.0913483,
      "lon": 5.3825963,
      "tags": {
        "addr:postcode": "38680",
        "name": "Presles",
        "name:oc": "Praèla",
        "place": "village",
        "population": "99",
        "ref:FR:SIREN": "213803224",
        "source:name:oc": "ieo-bdtopoc",
        "source:population": "INSEE 2013"
      }
    },
    {
      "type": "node",
      "id": 34055300,
      "lat": 45.1028091,
      "lon": 5.4727050,
      "tags": {
        "addr:postcode": "38680",
        "name": "Rencurel",
        "name:oc": "Rencurèl",
        "place": "village",
        "population": "304",
        "ref:FR:SIREN": "213803331",
        "source:name:oc": "ieo-bdtopoc",
        "source:population": "INSEE 2013"
      }
    },
    {
      "type": "node",
      "id": 34055308,
      "lat": 45.2014000,
      "lon": 5.4606400,
      "tags": {
        "addr:postcode": "38470",
        "name": "Rovon",
        "place": "village",
        "population": "593",
        "ref:FR:SIREN": "213803455",
        "source:population": "INSEE 2013",
        "wikipedia": "fr:Rovon"
      }
    },
    {
      "type": "node",
      "id": 34055340,
      "lat": 45.2022356,
      "lon": 5.4820229,
      "tags": {
        "addr:postcode": "38470",
        "name": "Saint-Gervais",
        "place": "village",
        "population": "574",
        "ref:FR:SIREN": "213803901",
        "source:population": "INSEE 2013",
        "wikipedia": "fr:Saint-Gervais (Isère)"
      }
    },
    {
      "type": "node",
      "id": 34055379,
      "lat": 45.1211380,
      "lon": 5.3621871,
      "tags": {
        "addr:postcode": "38160",
        "name": "Saint-Pierre-de-Chérennes",
        "place": "village",
        "population": "476",
        "ref:FR:SIREN": "213804438",
        "source:population": "INSEE 2013",
        "wikidata": "Q947243",
        "wikipedia": "fr:Saint-Pierre-de-Chérennes"
      }
    },
    {
      "type": "node",
      "id": 34055439,
      "lat": 45.1827000,
      "lon": 5.3804800,
      "tags": {
        "addr:postcode": "38470",
        "name": "Têche",
        "place": "village",
        "population": "560",
        "ref:FR:SIREN": "213805005",
        "source:population": "INSEE 2013",
        "wikipedia": "fr:Têche"
      }
    },
    {
      "type": "node",
      "id": 34819062,
      "lat": 45.3264145,
      "lon": 5.8994176,
      "tags": {
        "name": "Le Prayer",
        "place": "hamlet",
        "population": "50"
      }
    },
    {
      "type": "node",
      "id": 35153416,
      "lat": 42.8893451,
      "lon": -0.1145460,
      "tags": {
        "name": "Cauterets",
        "name:oc": "Cautarés",
        "place": "village",
        "population": "893",
        "wikidata": "Q366962",
        "wikipedia": "fr:Cauterets"
      }
    },
    {
      "type": "node",
      "id": 35179385,
      "lat": 42.8721142,
      "lon": -0.0043418,
      "tags": {
        "name": "Luz-Saint-Sauveur",
        "name:oc": "Lus e Sent Sauvaire",
        "place": "village",
        "population": "981",
        "wikidata": "Q899896",
        "wikipedia": "fr:Luz-Saint-Sauveur"
      }
    },
    {
      "type": "node",
      "id": 35188522,
      "lat": 42.9563852,
      "lon": -0.0747775,
      "tags": {
        "name": "Soulom",
        "name:oc": "Solon",
        "place": "village",
        "population": "265",
        "wikidata": "Q693533",
        "wikipedia": "fr:Soulom"
      }
    },
    {
      "type": "node",
      "id": 35447964,
      "lat": 42.5552259,
      "lon": 2.2701269,
      "tags": {
        "name": "Olette",
        "name:ca": "Oleta",
        "place": "village",
        "population": "364",
        "source:population": "INSEE 2020",
        "wikidata": "Q52128768",
        "wikipedia": "ca:Oleta"
      }
    },
    {
      "type": "node",
      "id": 36162850,
      "lat": 47.2798748,
      "lon": 3.6515133,
      "tags": {
        "addr:postcode": "58800",
        "name": "Marigny-sur-Yonne",
        "place": "village",
        "population": "210",
        "source:population": "INSEE 2013"
      }
    },
    {
      "type": "node",
      "id": 36263042,
      "lat": 43.8563396,
      "lon": 7.1970023,
      "tags": {
        "name": "Plan-du-Var",
        "place": "hamlet",
        "population": "200"
      }
    },
    {
      "type": "node",
      "id": 36266382,
      "lat": 44.1860506,
      "lon": 7.0519874,
      "tags": {
        "addr:postcode": "06420",
        "name": "Isola",
        "name:oc": "Lieusola",
        "place": "village",
        "population": "752",
        "ref:FR:SIREN": "210600730",
        "source:name:oc": "ieo-bdtopoc",
        "source:population": "INSEE 2013",
        "wikipedia": "fr:Isola (Alpes-Maritimes)"
      }
    },
    {
      "type": "node",
      "id": 36268645,
      "lat": 43.7742384,
      "lon": 6.7041357,
      "tags": {
        "addr:postcode": "06750",
        "name": "Séranon",
        "name:oc": "Seranon",
        "place": "village",
        "population": "477",
        "ref:FR:SIREN": "210601340",
        "source:name:oc": "ieo-bdtopoc",
        "source:population": "INSEE 2013",
        "wikidata": "Q773130",
        "wikipedia": "fr:Séranon"
      }
    },
    {
      "type": "node",
      "id": 36786842,
      "lat": 45.7494000,
      "lon": 5.6013700,
      "tags": {
        "addr:postcode": "01300",
        "name": "Ambléon",
        "place": "village",
        "population": "110",
        "ref:FR:SIREN": "210100061",
        "source:population": "INSEE 2016",
        "wikidata": "Q193812",
        "wikipedia": "fr:Ambléon"
      }
    },
    {
      "type": "node",
      "id": 36786843,
      "lat": 45.9400972,
      "lon": 5.3360090,
      "tags": {
        "addr:postcode": "01500",
        "name": "Ambutrix",
        "place": "village",
        "population": "750",
        "ref:FR:SIREN": "210100087",
        "source:population": "INSEE 2016",
        "website": "http://www.ambutrix.fr",
        "wikidata": "Q10290",
        "wikipedia": "fr:Ambutrix"
      }
    },
    {
      "type": "node",
      "id": 36786847,
      "lat": 46.0035798,
      "lon": 5.5076692,
      "tags": {
        "addr:postcode": "01110",
        "name": "Aranc",
        "place": "village",
        "population": "300",
        "ref:FR:SIREN": "210100129",
        "wikipedia": "fr:Aranc"
      }
    },
    {
      "type": "node",
      "id": 36786856,
      "lat": 46.3082000,
      "lon": 4.9294300,
      "tags": {
        "addr:postcode": "01380",
        "name": "Bâgé-le-Châtel",
        "place": "village",
        "population": "800",
        "ref:FR:SIREN": "210100269",
        "wikipedia": "fr:Bâgé-le-Châtel"
      }
    },
    {
      "type": "node",
      "id": 36786862,
      "lat": 46.2525000,
      "lon": 5.7775700,
      "tags": {
        "addr:postcode": "01130",
        "name": "Belleydoux",
        "place": "village",
        "population": "326",
        "source:population": "INSEE 2016",
        "website": "http://www.belleydoux.fr/",
        "wikidata": "Q211712",
        "wikipedia": "fr:Belleydoux"
      }
    },
    {
      "type": "node",
      "id": 36786883,
      "lat": 45.9476000,
      "lon": 5.7231000,
      "tags": {
        "addr:postcode": "01260",
        "name": "Brénaz",
        "place": "village",
        "population": "92",
        "ref:FR:SIREN": "210100590",
        "source:population": "INSEE 2013",
        "wikipedia": "fr:Brénaz"
      }
    },
    {
      "type": "node",
      "id": 36786910,
      "lat": 45.8697000,
      "lon": 5.2241200,
      "tags": {
        "addr:postcode": "01800",
        "name": "Charnoz-sur-Ain",
        "place": "village",
        "population": "904",
        "ref:FR:SIREN": "210100889",
        "wikipedia": "fr:Charnoz-sur-Ain"
      }
    },
    {
      "type": "node",
      "id": 36786917,
      "lat": 45.8830866,
      "lon": 5.7167159,
      "tags": {
        "addr:postcode": "01510",
        "name": "Chavornay",
        "place": "village",
        "population": "200",
        "ref:FR:SIREN": "210100970"
      }
    },
    {
      "type": "node",
      "id": 36786939,
      "lat": 46.3307000,
      "lon": 5.3691400,
      "tags": {
        "addr:postcode": "01370",
        "name": "Courmangoux",
        "place": "village",
        "population": "507",
        "ref:FR:SIREN": "210101275",
        "source:population": "INSEE 2013"
      }
    },
    {
      "type": "node",
      "id": 36786943,
      "lat": 45.9515680,
      "lon": 5.6120520,
      "tags": {
        "addr:postcode": "01110",
        "name": "Cormaranche-en-Bugey",
        "place": "village",
        "population": "859",
        "ref:FR:SIREN": "210101226",
        "source:population": "INSEE 2013",
        "wikipedia": "fr:Cormaranche-en-Bugey"
      }
    },
    {
      "type": "node",
      "id": 36786946,
      "lat": 46.3374556,
      "lon": 4.9890710,
      "tags": {
        "addr:postcode": "01380",
        "name": "Dommartin",
        "place": "village",
        "population": "841",
        "ref:FR:SIREN": "210101440",
        "source:population": "INSEE 2013",
        "wikipedia": "fr:Dommartin (Ain)"
      }
    },
    {
      "type": "node",
      "id": 36786967,
      "lat": 46.3344407,
      "lon": 5.1858354,
      "tags": {
        "addr:postcode": "01340",
        "name": "Étrez",
        "place": "village",
        "population": "803",
        "ref:FR:SIREN": "210101549",
        "source:population": "INSEE 2013",
        "wikipedia": "fr:Étrez"
      }
    },
    {
      "type": "node",
      "id": 36786969,
      "lat": 46.2014000,
      "lon": 5.4315900,
      "tags": {
        "addr:postcode": "01250",
        "name": "Grand-Corent",
        "place": "village",
        "population": "177",
        "ref:FR:SIREN": "210101770",
        "source:population": "INSEE 2013"
      }
    },
    {
      "type": "node",
      "id": 36786973,
      "lat": 45.7133862,
      "lon": 5.5689047,
      "tags": {
        "addr:postcode": "01680",
        "name": "Groslée",
        "place": "village",
        "population": "353",
        "ref:FR:SIREN": "210101820",
        "source:population": "INSEE 2013",
        "wikipedia": "fr:Groslée"
      }
    },
    {
      "type": "node",
      "id": 36786984,
      "lat": 46.3102886,
      "lon": 5.4485852,
      "tags": {
        "addr:postcode": "01250",
        "name": "Germagnat",
        "place": "village",
        "population": "145",
        "ref:FR:SIREN": "210101721",
        "source:population": "INSEE 2013",
        "wikipedia": "fr:Germagnat"
      }
    },
    {
      "type": "node",
      "id": 36786990,
      "lat": 46.1502427,
      "lon": 4.9202187,
      "tags": {
        "addr:postcode": "01400",
        "name": "L'Abergement",
        "place": "village",
        "population": "767",
        "ref:FR:SIREN": "210100012",
        "source:population": "INSEE 2016",
        "wikidata": "Q204388",
        "wikipedia": "fr:L'Abergement-Clémenciat"
      }
    },
    {
      "type": "node",
      "id": 36786993,
      "lat": 45.9020215,
      "lon": 5.5346165,
      "tags": {
        "addr:postcode": "01110",
        "name": "Hostiaz",
        "place": "village",
        "population": "82",
        "source:population": "INSEE 2013"
      }
    },
    {
      "type": "node",
      "id": 36787000,
      "lat": 45.6515000,
      "lon": 5.6407200,
      "tags": {
        "addr:postcode": "01300",
        "name": "Izieu",
        "place": "village",
        "population": "200",
        "ref:FR:SIREN": "210101937",
        "wikipedia": "fr:Izieu"
      }
    },
    {
      "type": "node",
      "id": 36787001,
      "lat": 46.0320602,
      "lon": 5.6642216,
      "tags": {
        "addr:postcode": "01260",
        "name": "Le Petit-Abergement",
        "place": "village",
        "population": "138",
        "ref:FR:SIREN": "210102927",
        "source:population": "INSEE 2013",
        "wikipedia": "fr:Le Petit-Abergement"
      }
    },
    {
      "type": "node",
      "id": 36787003,
      "lat": 46.0336263,
      "lon": 5.6742349,
      "tags": {
        "addr:postcode": "01260",
        "name": "Le Grand-Abergement",
        "place": "village",
        "population": "109",
        "source:population": "INSEE 2013",
        "wikipedia": "fr:Le Grand-Abergement"
      }
    },
    {
      "type": "node",
      "id": 36787007,
      "lat": 46.1444000,
      "lon": 5.6960400,
      "tags": {
        "addr:postcode": "01130",
        "name": "Le Poizat",
        "place": "village",
        "population": "422",
        "ref:FR:SIREN": "210103008",
        "source:population": "INSEE 2013"
      }
    },
    {
      "type": "node",
      "id": 36787012,
      "lat": 46.1107000,
      "lon": 5.2623500,
      "tags": {
        "addr:postcode": "01160",
        "name": "La Tranclière",
        "place": "village",
        "population": "300",
        "ref:FR:SIREN": "210104253"
      }
    },
    {
      "type": "node",
      "id": 36787019,
      "lat": 45.8029883,
      "lon": 5.5201775,
      "tags": {
        "addr:postcode": "01680",
        "name": "Lompnas",
        "old_name": "Lompnaz",
        "place": "village",
        "population": "164",
        "ref:FR:SIREN": "210102190",
        "wikipedia": "fr:Lompnas"
      }
    },
    {
      "type": "node",
      "id": 36787020,
      "lat": 45.9606000,
      "lon": 5.6590200,
      "tags": {
        "addr:postcode": "01260",
        "name": "Lompnieu",
        "place": "village",
        "population": "122",
        "source:population": "INSEE 2013",
        "wikipedia": "fr:Lompnieu"
      }
    },
    {
      "type": "node",
      "id": 36787030,
      "lat": 45.9300000,
      "lon": 5.7271400,
      "tags": {
        "addr:postcode": "01260",
        "name": "Lochieu",
        "place": "village",
        "population": "91",
        "ref:FR:SIREN": "210102182",
        "source:population": "INSEE 2013",
        "wikipedia": "fr:Lochieu"
      }
    },
    {
      "type": "node",
      "id": 36787052,
      "lat": 45.8374327,
      "lon": 5.5391971,
      "tags": {
        "addr:postcode": "01510",
        "name": "Ordonnaz",
        "place": "village",
        "population": "141",
        "ref:FR:SIREN": "210102802",
        "source:population": "INSEE 2013"
      }
    },
    {
      "type": "node",
      "id": 36787093,
      "lat": 45.8205793,
      "lon": 5.6470717,
      "tags": {
        "addr:postcode": "01510",
        "name": "Pugieu",
        "place": "village",
        "population": "168",
        "ref:FR:SIREN": "210103164",
        "source:population": "INSEE 2013",
        "wikipedia": "fr:Pugieu"
      }
    },
    {
      "type": "node",
      "id": 36787095,
      "lat": 46.3230557,
      "lon": 5.3849421,
      "tags": {
        "addr:postcode": "01370",
        "name": "Pressiat",
        "place": "village",
        "population": "224",
        "ref:FR:SIREN": "210103123",
        "source:population": "INSEE 2013"
      }
    },
    {
      "type": "node",
      "id": 36787107,
      "lat": 46.0803985,
      "lon": 5.0572662,
      "tags": {
        "addr:postcode": "01240",
        "name": "Saint-Germain-sur-Renon",
        "place": "village",
        "population": "236",
        "ref:FR:SIREN": "210103594",
        "source:population": "INSEE 2013"
      }
    },
    {
      "type": "node",
      "id": 36787109,
      "lat": 46.3967000,
      "lon": 5.0630300,
      "tags": {
        "addr:postcode": "01560",
        "name": "Saint-Jean-sur-Reyssouze",
        "place": "village",
        "population": "744",
        "ref:FR:SIREN": "210103644",
        "source:population": "INSEE 2013",
        "wikipedia": "fr:Saint-Jean-sur-Reyssouze"
      }
    },
    {
      "type": "node",
      "id": 36787121,
      "lat": 45.6937000,
      "lon": 5.5879600,
      "tags": {
        "addr:postcode": "01300",
        "name": "Saint-Benoît",
        "place": "village",
        "population": "840",
        "ref:FR:SIREN": "210103388",
        "wikipedia": "fr:Saint-Benoît (Ain)"
      }
    },
    {
      "type": "node",
      "id": 36787127,
      "lat": 45.7009179,
      "lon": 5.6406540,
      "tags": {
        "addr:postcode": "01300",
        "name": "Saint-Bois",
        "place": "village",
        "population": "123",
        "ref:FR:SIREN": "210103404",
        "source:population": "INSEE 2013",
        "wikipedia": "fr:Saint-Bois"
      }
    },
    {
      "type": "node",
      "id": 36787128,
      "lat": 45.7747388,
      "lon": 5.7330650,
      "tags": {
        "addr:postcode": "01300",
        "name": "Saint-Champ",
        "place": "village",
        "population": "139",
        "ref:FR:SIREN": "210103412",
        "source:population": "INSEE 2013"
      }
    },
    {
      "type": "node",
      "id": 36787129,
      "lat": 45.9313564,
      "lon": 5.1527949,
      "tags": {
        "addr:postcode": "01800",
        "name": "Saint-Éloi",
        "place": "village",
        "population": "400",
        "ref:FR:SIREN": "210103495",
        "wikipedia": "fr:Saint-Éloi (Ain)"
      }
    },
    {
      "type": "node",
      "id": 36787184,
      "lat": 45.9731142,
      "lon": 5.7031087,
      "tags": {
        "addr:postcode": "01260",
        "name": "Songieu",
        "place": "village",
        "population": "130",
        "source:population": "INSEE 2013",
        "wikipedia": "fr:Songieu"
      }
    },
    {
      "type": "node",
      "id": 36787192,
      "lat": 45.8933000,
      "lon": 5.5967300,
      "tags": {
        "addr:postcode": "01110",
        "name": "Thézillieu",
        "place": "village",
        "population": "324",
        "ref:FR:SIREN": "210104170",
        "source:population": "INSEE 2013",
        "wikipedia": "fr:Thézillieu"
      }
    },
    {
      "type": "node",
      "id": 36787193,
      "lat": 45.9499376,
      "lon": 5.6577178,
      "tags": {
        "addr:postcode": "01260",
        "name": "Sutrieu",
        "old_name": "Subtriacum villam",
        "place": "village",
        "population": "235",
        "ref:FR:SIREN": "210104147",
        "source:population": "INSEE 2013",
        "wikidata": "Q275846",
        "wikipedia": "fr:Sutrieu"
      }
    },
    {
      "type": "node",
      "id": 36787196,
      "lat": 46.0239272,
      "lon": 5.8030274,
      "tags": {
        "addr:postcode": "01420",
        "name": "Surjoux",
        "place": "village",
        "population": "78",
        "ref:FR:SIREN": "210104139",
        "source:population": "INSEE 2013",
        "wikipedia": "fr:Surjoux"
      }
    },
    {
      "type": "node",
      "id": 36787201,
      "lat": 45.8983000,
      "lon": 5.6824800,
      "tags": {
        "addr:postcode": "01260",
        "name": "Vieu",
        "place": "village",
        "population": "380",
        "ref:FR:SIREN": "210104428",
        "source:population": "INSEE 2013",
        "wikipedia": "fr:Vieu"
      }
    },
    {
      "type": "node",
      "id": 38900955,
      "lat": 42.5808700,
      "lon": 2.4268010,
      "tags": {
        "name": "Taurinya",
        "name:ca": "Taurinyà",
        "name:fr": "Taurinya",
        "place": "village",
        "population": "336",
        "source:population": "INSEE 2020"
      }
    },
    {
      "type": "node",
      "id": 38900971,
      "lat": 42.6337734,
      "lon": 2.4229296,
      "tags": {
        "name": "Catllar",
        "name:ca": "Catllà",
        "name:fr": "Catllar",
        "place": "village",
        "population": "771",
        "source:population": "INSEE 2020",
        "wikidata": "Q197689",
        "wikipedia": "fr:Catllar"
      }
    },
    {
      "type": "node",
      "id": 41177783,
      "lat": 42.6104308,
      "lon": 2.4167276,
      "tags": {
        "addr:postcode": "66500",
        "name": "Codalet",
        "name:ca": "Codalet",
        "place": "village",
        "population": "386",
        "source:population": "INSEE 2020"
      }
    },
    {
      "type": "node",
      "id": 41317863,
      "lat": 48.0738751,
      "lon": -0.0597483,
      "tags": {
        "addr:postcode": "72240",
        "name": "Bernay-en-Champagne",
        "place": "village",
        "population": "458",
        "source:population": "INSEE 2013",
        "wikipedia": "fr:Bernay-en-Champagne"
      }
    },
    {
      "type": "node",
      "id": 41644972,
      "lat": 45.5691000,
      "lon": 6.7129300,
      "tags": {
        "addr:postcode": "73210",
        "name": "Bellentre",
        "place": "village",
        "population": "944",
        "ref:SIREN": "217300383",
        "source:population": "INSEE 2013"
      }
    },
    {
      "type": "node",
      "id": 41644997,
      "lat": 45.5224000,
      "lon": 6.4554500,
      "tags": {
        "addr:postcode": "73260",
        "name": "Bonneval",
        "place": "village",
        "population": "106",
        "source:population": "INSEE 2013"
      }
    },
    {
      "type": "node",
      "id": 41645019,
      "lat": 45.2238391,
      "lon": 6.7757428,
      "tags": {
        "addr:city": "Val-Cenis",
        "addr:postcode": "73500",
        "alt_name": "Val-Cenis Bramans",
        "name": "Bramans",
        "place": "village",
        "population": "432",
        "ref:SIREN": "217300565",
        "source:population": "INSEE 2013",
        "wikipedia": "fr:Bramans"
      }
    },
    {
      "type": "node",
      "id": 41645031,
      "lat": 45.7984000,
      "lon": 5.8835100,
      "tags": {
        "addr:postcode": "73410",
        "name": "Cessens",
        "place": "quarter",
        "population": "420",
        "ref:SIREN": "217300623",
        "source:population": "INSEE 2013"
      }
    },
    {
      "type": "node",
      "id": 41645137,
      "lat": 45.7393000,
      "lon": 5.9600600,
      "tags": {
        "addr:postcode": "73410",
        "name": "Épersy",
        "place": "quarter",
        "population": "342",
        "ref:SIREN": "217301084",
        "source:population": "INSEE 2013"
      }
    },
    {
      "type": "node",
      "id": 41645149,
      "lat": 45.4639000,
      "lon": 6.1436600,
      "tags": {
        "addr:postcode": "73110",
        "name": "Étable",
        "place": "quarter",
        "population": "353",
        "ref:SIREN": "217301118",
        "source:population": "INSEE 2013"
      }
    },
    {
      "type": "node",
      "id": 41645154,
      "lat": 45.5605000,
      "lon": 6.4701400,
      "tags": {
        "addr:postcode": "73260",
        "name": "Feissons-sur-Isère",
        "place": "village",
        "population": "584",
        "source:population": "INSEE 2013",
        "wikipedia": "fr:Feissons-sur-Isère"
      }
    },
    {
      "type": "node",
      "id": 41645186,
      "lat": 45.5001389,
      "lon": 6.0333465,
      "tags": {
        "addr:postcode": "73800",
        "name": "Francin",
        "place": "quarter",
        "population": "883",
        "ref:SIREN": "217301183",
        "source:population": "INSEE 2013"
      }
    },
    {
      "type": "node",
      "id": 41645202,
      "lat": 45.5725991,
      "lon": 6.6507245,
      "tags": {
        "addr:postcode": "73210",
        "name": "Granier",
        "place": "village",
        "population": "371",
        "ref:SIREN": "217301266",
        "source:population": "INSEE 2013"
      }
    },
    {
      "type": "node",
      "id": 41645207,
      "lat": 45.6092000,
      "lon": 5.6818700,
      "tags": {
        "addr:postcode": "73240",
        "name": "Gresin",
        "place": "quarter",
        "population": "360",
        "ref:SIREN": "217301274",
        "source:population": "INSEE 2013"
      }
    },
    {
      "type": "node",
      "id": 41645275,
      "lat": 45.6462000,
      "lon": 5.7592800,
      "tags": {
        "addr:postcode": "73170",
        "name": "La Chapelle-Saint-Martin",
        "place": "village",
        "population": "148",
        "ref:SIREN": "217300789",
        "source:population": "INSEE 2013",
        "wikipedia": "fr:La Chapelle-Saint-Martin"
      }
    },
    {
      "type": "node",
      "id": 41645289,
      "lat": 45.5671000,
      "lon": 6.6669700,
      "tags": {
        "addr:postcode": "73210",
        "name": "La Côte-d'Aime",
        "place": "village",
        "population": "861",
        "ref:SIREN": "217300938",
        "source:population": "INSEE 2013"
      }
    },
    {
      "type": "node",
      "id": 41645299,
      "lat": 45.5026000,
      "lon": 6.4698799,
      "tags": {
        "addr:postcode": "73260",
        "name": "Doucy",
        "place": "village",
        "population": "67"
      }
    },
    {
      "type": "node",
      "id": 41645309,
      "lat": 45.4462985,
      "lon": 6.5911269,
      "tags": {
        "addr:postcode": "73120",
        "name": "La Perrière",
        "place": "village",
        "population": "444",
        "source:population": "INSEE 2013"
      }
    },
    {
      "type": "node",
      "id": 41645334,
      "lat": 45.2891832,
      "lon": 6.9115589,
      "tags": {
        "addr:city": "Val-Cenis",
        "addr:postcode": "73480",
        "name": "Lanslevillard",
        "place": "village",
        "population": "465",
        "ref:SIREN": "217301449",
        "source:population": "INSEE 2013",
        "wikipedia": "fr:Lanslevillard"
      }
    },
    {
      "type": "node",
      "id": 41645338,
      "lat": 45.4911170,
      "lon": 6.4983430,
      "tags": {
        "addr:postcode": "73260",
        "name": "Le Bois",
        "place": "quarter",
        "population": "363",
        "source:population": "INSEE 2013"
      }
    },
    {
      "type": "node",
      "id": 41645342,
      "lat": 45.3073000,
      "lon": 6.3590600,
      "tags": {
        "addr:postcode": "73300",
        "name": "Le Châtel",
        "place": "village",
        "population": "201",
        "ref:SIREN": "217300805",
        "source:population": "INSEE 2013"
      }
    },
    {
      "type": "node",
      "id": 41645437,
      "lat": 45.7476000,
      "lon": 5.9579900,
      "tags": {
        "addr:postcode": "73410",
        "name": "Mognard",
        "place": "quarter",
        "population": "418",
        "ref:SIREN": "217301589",
        "source:population": "INSEE 2013"
      }
    },
    {
      "type": "node",
      "id": 41645447,
      "lat": 45.3724000,
      "lon": 6.3453900,
      "tags": {
        "addr:postcode": "73130",
        "name": "Montaimont",
        "place": "village",
        "population": "160",
        "source:population": "INSEE 2013"
      }
    },
    {
      "type": "node",
      "id": 41645456,
      "lat": 45.3914549,
      "lon": 6.3188494,
      "tags": {
        "addr:postcode": "73130",
        "name": "Montgellafrey",
        "place": "village",
        "population": "67",
        "source:population": "INSEE 2013"
      }
    },
    {
      "type": "node",
      "id": 41645652,
      "lat": 45.7780000,
      "lon": 5.8915000,
      "tags": {
        "addr:postcode": "73410",
        "name": "Saint-Germain-la-Chambotte",
        "place": "quarter",
        "population": "446",
        "ref:SIREN": "217302389",
        "source:population": "INSEE 2013"
      }
    },
    {
      "type": "node",
      "id": 41645657,
      "lat": 45.7800333,
      "lon": 5.9674829,
      "tags": {
        "addr:postcode": "73410",
        "name": "Saint-Girod",
        "place": "quarter",
        "population": "581",
        "ref:SIREN": "217302397",
        "source:population": "INSEE 2013"
      }
    },
    {
      "type": "node",
      "id": 41645713,
      "lat": 45.6154000,
      "lon": 5.7006000,
      "tags": {
        "addr:postcode": "73240",
        "name": "Saint-Maurice-de-Rotherens",
        "place": "quarter",
        "population": "217",
        "ref:SIREN": "217302603",
        "source:population": "INSEE 2013"
      }
    },
    {
      "type": "node",
      "id": 41645729,
      "lat": 45.5032000,
      "lon": 6.4850000,
      "tags": {
        "addr:postcode": "73260",
        "name": "Saint-Oyen",
        "place": "quarter",
        "population": "206",
        "ref:SIREN": "217302660",
        "source:population": "INSEE 2013"
      }
    },
    {
      "type": "node",
      "id": 41645790,
      "lat": 45.5945479,
      "lon": 5.7202782,
      "tags": {
        "addr:postcode": "73240",
        "name": "Sainte-Marie-d'Alvey",
        "place": "village",
        "population": "100",
        "ref:SIREN": "217302546"
      }
    },
    {
      "type": "node",
      "id": 41645814,
      "lat": 45.2637369,
      "lon": 6.8078730,
      "tags": {
        "addr:city": "Val-Cenis",
        "addr:postcode": "73500",
        "name": "Sollières-Sardières",
        "place": "village",
        "population": "190",
        "ref:SIREN": "217302876",
        "source:population": "INSEE 2013",
        "wikipedia": "fr:Sollières-Sardières"
      }
    },
    {
      "type": "node",
      "id": 41645818,
      "lat": 45.2769434,
      "lon": 6.8169262,
      "tags": {
        "addr:postcode": "73500",
        "alt_name": "Termignon-la-Vanoise",
        "name": "Termignon",
        "name:uk": "Терміньон",
        "place": "village",
        "population": "402",
        "ref:FR:SIREN": "217302900",
        "wikidata": "Q569751",
        "wikipedia": "fr:Termignon"
      }
    },
    {
      "type": "node",
      "id": 41645846,
      "lat": 45.5755000,
      "lon": 6.6934300,
      "tags": {
        "addr:postcode": "73210",
        "name": "Valezan",
        "place": "village",
        "population": "207",
        "ref:SIREN": "217303056",
        "source:population": "INSEE 2013"
      }
    },
    {
      "type": "node",
      "id": 41645894,
      "lat": 45.4622000,
      "lon": 6.5298500,
      "tags": {
        "addr:postcode": "73600",
        "name": "Villarlurin",
        "place": "village",
        "population": "297",
        "source:population": "INSEE 2013"
      }
    },
    {
      "type": "node",
      "id": 41978432,
      "lat": 48.0998689,
      "lon": 7.2310706,
      "tags": {
        "name": "Trois-Épis",
        "name:de": "Drei Ähren",
        "place": "village",
        "population": "210",
        "postal_code": "68410"
      }
    },
    {
      "type": "node",
      "id": 48113874,
      "lat": 48.0980561,
      "lon": -0.2629787,
      "tags": {
        "addr:postcode": "53270",
        "name": "Torcé-Viviers-en-Charnie",
        "place": "village",
        "population": "731",
        "ref:FR:SIREN": "215302654",
        "source:population": "INSEE 2013"
      }
    },
    {
      "type": "node",
      "id": 48229036,
      "lat": 48.1037355,
      "lon": 0.0276825,
      "tags": {
        "addr:postcode": "72240",
        "name": "Domfront-en-Champagne",
        "place": "village",
        "population": "971",
        "source:population": "INSEE 2013",
        "wikipedia": "fr:Domfront-en-Champagne"
      }
    },
    {
      "type": "node",
      "id": 50054971,
      "lat": 48.1567492,
      "lon": 0.0018977,
      "tags": {
        "addr:postcode": "72240",
        "name": "Neuvillalais",
        "place": "village",
        "population": "577",
        "source:population": "INSEE 2008"
      }
    },
    {
      "type": "node",
      "id": 50054975,
      "lat": 48.1930796,
      "lon": 0.0866656,
      "tags": {
        "addr:postcode": "72170",
        "name": "Assé-le-Riboul",
        "place": "village",
        "population": "487",
        "source:population": "INSEE 2008"
      }
    },
    {
      "type": "node",
      "id": 50055007,
      "lat": 48.1812739,
      "lon": 0.0750963,
      "tags": {
        "addr:postcode": "72170",
        "name": "Le Tronchet",
        "place": "village",
        "population": "141",
        "source:population": "INSEE 2013"
      }
    },
    {
      "type": "node",
      "id": 50055651,
      "lat": 48.1851343,
      "lon": 0.0177843,
      "tags": {
        "addr:postcode": "72170",
        "name": "Vernie",
        "place": "village",
        "population": "348",
        "source:population": "INSEE 2013",
        "wikipedia": "fr:Vernie"
      }
    },
    {
      "type": "node",
      "id": 50055654,
      "lat": 48.1986243,
      "lon": 0.0244749,
      "tags": {
        "addr:postcode": "72170",
        "name": "Ségrie",
        "place": "village",
        "population": "609",
        "source:population": "INSEE 2008",
        "wikipedia": "fr:Ségrie"
      }
    },
    {
      "type": "node",
      "id": 50076722,
      "lat": 48.1813823,
      "lon": 0.1262300,
      "tags": {
        "addr:postcode": "72170",
        "name": "Saint-Marceau",
        "place": "village",
        "population": "493",
        "source:population": "INSEE 2013"
      }
    },
    {
      "type": "node",
      "id": 50098604,
      "lat": 48.0811537,
      "lon": -0.0397802,
      "tags": {
        "addr:postcode": "72240",
        "name": "Neuvy-en-Champagne",
        "place": "village",
        "population": "381",
        "source:population": "INSEE 2008",
        "wikipedia": "fr:Neuvy-en-Champagne"
      }
    },
    {
      "type": "node",
      "id": 50860764,
      "lat": 48.1099885,
      "lon": 0.0805399,
      "tags": {
        "addr:postcode": "72240",
        "name": "La Chapelle-Saint-Fray",
        "place": "village",
        "population": "421",
        "source:population": "INSEE 2013"
      }
    },
    {
      "type": "node",
      "id": 51830676,
      "lat": 48.0375093,
      "lon": -0.1157105,
      "tags": {
        "addr:postcode": "72540",
        "name": "Épineu-le-Chevreuil",
        "place": "village",
        "population": "286",
        "source:population": "INSEE 2013"
      }
    },
    {
      "type": "node",
      "id": 53369012,
      "lat": 48.3176305,
      "lon": -0.0298182,
      "tags": {
        "addr:postcode": "72130",
        "name": "Sougé-le-Ganelon",
        "place": "village",
        "population": "900",
        "source:population": "INSEE 2013"
      }
    },
    {
      "type": "node",
      "id": 53371136,
      "lat": 48.3525683,
      "lon": -0.0774296,
      "tags": {
        "addr:postcode": "72130",
        "name": "Saint-Léonard-des-Bois",
        "place": "village",
        "population": "535",
        "source:population": "INSEE 2013",
        "wikidata": "Q516667",
        "wikipedia": "fr:Saint-Léonard-des-Bois"
      }
    },
    {
      "type": "node",
      "id": 57656376,
      "lat": 48.2317367,
      "lon": 0.0364898,
      "tags": {
        "addr:postcode": "72170",
        "name": "Saint-Christophe-du-Jambet",
        "place": "village",
        "population": "209",
        "source:population": "INSEE 2013"
      }
    },
    {
      "type": "node",
      "id": 57707286,
      "lat": 48.0186634,
      "lon": -0.1905497,
      "tags": {
        "addr:postcode": "72540",
        "name": "Joué-en-Charnie",
        "place": "village",
        "population": "629",
        "source:population": "INSEE 2013"
      }
    },
    {
      "type": "node",
      "id": 60644633,
      "lat": 48.1940277,
      "lon": -0.0593182,
      "tags": {
        "addr:postcode": "72140",
        "name": "Pezé-le-Robert",
        "place": "village",
        "population": "367",
        "source:population": "INSEE 2008"
      }
    },
    {
      "type": "node",
      "id": 60644634,
      "lat": 48.1685132,
      "lon": -0.0602119,
      "tags": {
        "addr:postcode": "72140",
        "name": "Crissé",
        "place": "village",
        "population": "552",
        "source:population": "INSEE 2013"
      }
    },
    {
      "type": "node",
      "id": 60943687,
      "lat": 42.6634110,
      "lon": 2.4858428,
      "tags": {
        "addr:postcode": "66320",
        "name": "Arboussols",
        "name:ca": "Arboçols",
        "old_name": "Marcevol",
        "place": "village",
        "population": "118",
        "source:population": "INSEE 2020"
      }
    },
    {
      "type": "node",
      "id": 61105499,
      "lat": 48.1818634,
      "lon": 0.1880440,
      "tags": {
        "addr:postcode": "72290",
        "name": "Teillé",
        "place": "village",
        "population": "523",
        "source:population": "INSEE 2013"
      }
    },
    {
      "type": "node",
      "id": 75042531,
      "lat": 48.0625219,
      "lon": 0.9469978,
      "tags": {
        "addr:postcode": "41170",
        "name": "Arville",
        "place": "village",
        "population": "104",
        "source:population": "INSEE 2013"
      }
    },
    {
      "type": "node",
      "id": 82336456,
      "lat": 46.2183000,
      "lon": 3.1240200,
      "tags": {
        "addr:postcode": "03140",
        "name": "Chezelle",
        "name:oc": "Chasèla",
        "place": "village",
        "population": "161",
        "ref:FR:SIREN": "210300752",
        "source:name:oc": "ieo-bdtopoc",
        "source:population": "INSEE 2013",
        "wikipedia": "fr:Chezelle"
      }
    },
    {
      "type": "node",
      "id": 82336488,
      "lat": 46.3269514,
      "lon": 3.5640372,
      "tags": {
        "addr:postcode": "03220",
        "name": "Cindré",
        "place": "village",
        "population": "310",
        "ref:FR:SIREN": "210300794"
      }
    },
    {
      "type": "node",
      "id": 82336518,
      "lat": 46.6584000,
      "lon": 3.1185300,
      "tags": {
        "addr:postcode": "03160",
        "name": "Couzon",
        "place": "village",
        "population": "300",
        "ref:FR:SIREN": "210300901"
      }
    },
    {
      "type": "node",
      "id": 82336579,
      "lat": 46.4586000,
      "lon": 2.6508800,
      "tags": {
        "addr:postcode": "03190",
        "name": "Givarlais",
        "place": "village",
        "population": "244",
        "ref:FR:SIREN": "210301230",
        "source:population": "INSEE 2013"
      }
    },
    {
      "type": "node",
      "id": 82336604,
      "lat": 46.1600000,
      "lon": 3.1961900,
      "tags": {
        "addr:postcode": "03800",
        "name": "Jenzat",
        "name:oc": "Gensiac",
        "place": "village",
        "population": "513",
        "ref:FR:SIREN": "210301339",
        "source:name:oc": "ieo-bdtopoc"
      }
    },
    {
      "type": "node",
      "id": 82336612,
      "lat": 46.1624760,
      "lon": 3.6087657,
      "tags": {
        "addr:postcode": "03120",
        "name": "Isserpent",
        "name:oc": "Isserpent",
        "place": "village",
        "population": "500",
        "ref:FR:SIREN": "210301313",
        "source:name:oc": "ieo-bdtopoc"
      }
    },
    {
      "type": "node",
      "id": 82336627,
      "lat": 46.6890000,
      "lon": 2.7921200,
      "tags": {
        "addr:postcode": "03360",
        "name": "Isle-et-Bardais",
        "place": "village",
        "population": "272",
        "ref:FR:SIREN": "210301305",
        "source:population": "INSEE 2013"
      }
    },
    {
      "type": "node",
      "id": 82336641,
      "lat": 46.3493153,
      "lon": 3.1673721,
      "tags": {
        "addr:postcode": "03500",
        "name": "Laféline",
        "name:oc": "La Felhina",
        "place": "village",
        "population": "200",
        "ref:FR:SIREN": "210301347",
        "source:name:oc": "ieo-bdtopoc",
        "website": "www.lafeline.fr"
      }
    },
    {
      "type": "node",
      "id": 82336654,
      "lat": 46.3968000,
      "lon": 3.3419800,
      "tags": {
        "addr:postcode": "03340",
        "name": "La Ferté-Hauterive",
        "place": "village",
        "population": "300",
        "ref:FR:SIREN": "210301149"
      }
    },
    {
      "type": "node",
      "id": 82336757,
      "lat": 46.1668361,
      "lon": 2.6328617,
      "tags": {
        "addr:postcode": "03420",
        "name": "Marcillat-en-Combraille",
        "name:oc": "Marcilhac de Combralha",
        "place": "village",
        "population": "900",
        "ref:FR:SIREN": "210301610",
        "source:name:oc": "ieo-bdtopoc"
      }
    },
    {
      "type": "node",
      "id": 82336784,
      "lat": 46.4625000,
      "lon": 2.7142100,
      "tags": {
        "addr:postcode": "03190",
        "name": "Louroux-Hodement",
        "name:oc": "L'Oreor Odoment",
        "place": "village",
        "population": "346",
        "ref:FR:SIREN": "210301537",
        "source:name:oc": "ieo-bdtopoc",
        "source:population": "INSEE 2013"
      }
    },
    {
      "type": "node",
      "id": 82336797,
      "lat": 46.5286000,
      "lon": 3.4889000,
      "tags": {
        "addr:postcode": "03340",
        "name": "Montbeugny",
        "place": "village",
        "population": "681",
        "ref:FR:SIREN": "210301800",
        "source:population": "INSEE 2013",
        "wikipedia": "fr:Montbeugny"
      }
    },
    {
      "type": "node",
      "id": 82336927,
      "lat": 46.3128709,
      "lon": 2.9103914,
      "tags": {
        "addr:postcode": "03390",
        "name": "Saint-Bonnet-de-Four",
        "name:oc": "Sant Bonet de Forn",
        "place": "village",
        "population": "200",
        "ref:FR:SIREN": "210302196",
        "source:name:oc": "ieo-bdtopoc"
      }
    },
    {
      "type": "node",
      "id": 82336930,
      "lat": 46.4240999,
      "lon": 3.0309000,
      "tags": {
        "addr:postcode": "03240",
        "name": "Rocles",
        "name:oc": "Ròcles",
        "place": "village",
        "population": "377",
        "ref:FR:SIREN": "210302147",
        "source:name:oc": "ieo-bdtopoc",
        "source:population": "INSEE 2013"
      }
    },
    {
      "type": "node",
      "id": 82337013,
      "lat": 46.2319007,
      "lon": 3.6503270,
      "tags": {
        "addr:postcode": "03120",
        "name": "Saint-Prix",
        "name:oc": "Sent Priest",
        "place": "village",
        "population": "800",
        "ref:FR:SIREN": "210302576",
        "source:name:oc": "ieo-bdtopoc"
      }
    },
    {
      "type": "node",
      "id": 82337103,
      "lat": 46.2414000,
      "lon": 2.5617100,
      "tags": {
        "addr:postcode": "03420",
        "name": "Sainte-Thérence",
        "name:oc": "Santa Terença",
        "place": "village",
        "population": "200",
        "ref:FR:SIREN": "210302618",
        "source:name:oc": "ieo-bdtopoc"
      }
    },
    {
      "type": "node",
      "id": 82337129,
      "lat": 46.3972150,
      "lon": 2.6723817,
      "tags": {
        "addr:postcode": "03190",
        "name": "Verneix",
        "name:oc": "Vernai",
        "place": "village",
        "population": "600",
        "ref:FR:SIREN": "210303053",
        "source:name:oc": "ieo-bdtopoc"
      }
    },
    {
      "type": "node",
      "id": 82337235,
      "lat": 46.6117704,
      "lon": 2.6585366,
      "tags": {
        "addr:postcode": "03360",
        "name": "Vitray",
        "place": "village",
        "population": "115",
        "ref:FR:SIREN": "210303186",
        "source:population": "INSEE 2013"
      }
    },
    {
      "type": "node",
      "id": 82343623,
      "lat": 45.4136000,
      "lon": 4.1312900,
      "tags": {
        "addr:postcode": "42380",
        "name": "Aboën",
        "name:oc": "Los Aboens",
        "place": "village",
        "population": "435",
        "ref:FR:SIREN": "214200016",
        "source:name:oc": "ieo-bdtopoc",
        "source:population": "INSEE 2016",
        "wikidata": "Q1002072",
        "wikipedia": "fr:Aboën"
      }
    },
    {
      "type": "node",
      "id": 82343624,
      "lat": 45.8026818,
      "lon": 3.9442263,
      "tags": {
        "addr:postcode": "42130",
        "name": "Ailleux",
        "place": "village",
        "population": "158",
        "ref:FR:SIREN": "214200024",
        "source:population": "INSEE 2016",
        "website": "http://www.mairieailleux.fr",
        "wikidata": "Q1066179",
        "wikipedia": "fr:Ailleux"
      }
    },
    {
      "type": "node",
      "id": 82343626,
      "lat": 45.8778000,
      "lon": 4.0351400,
      "tags": {
        "addr:postcode": "42260",
        "name": "Amions",
        "place": "village",
        "population": "291",
        "ref:FR:SIREN": "214200040",
        "source:population": "INSEE 2016",
        "wikidata": "Q1068639",
        "wikipedia": "fr:Amions"
      }
    },
    {
      "type": "node",
      "id": 82343627,
      "lat": 45.3802721,
      "lon": 3.9962074,
      "tags": {
        "addr:postcode": "42550",
        "name": "Apinac",
        "name:oc": "Apinac",
        "place": "village",
        "population": "419",
        "ref:FR:SIREN": "214200065",
        "source:name:oc": "ieo-bdtopoc",
        "source:population": "INSEE 2016",
        "website": "http://www.apinac.fr",
        "wikidata": "Q1066141",
        "wikipedia": "fr:Apinac"
      }
    },
    {
      "type": "node",
      "id": 82343630,
      "lat": 45.7732065,
      "lon": 4.0327678,
      "tags": {
        "addr:postcode": "42130",
        "name": "Arthun",
        "place": "village",
        "population": "553",
        "ref:FR:SIREN": "214200099",
        "source:population": "INSEE 2016",
        "website": "https://arthun.fr",
        "wikidata": "Q384308",
        "wikipedia": "fr:Arthun"
      }
    },
    {
      "type": "node",
      "id": 82343632,
      "lat": 45.5876709,
      "lon": 4.0120110,
      "tags": {
        "addr:postcode": "42600",
        "name": "Bard",
        "place": "village",
        "population": "659",
        "ref:FR:SIREN": "214200123",
        "source:population": "INSEE 2016",
        "website": "http://www.bard.fr",
        "wikidata": "Q1068707",
        "wikipedia": "fr:Bard (Loire)"
      }
    },
    {
      "type": "node",
      "id": 82343634,
      "lat": 46.1687963,
      "lon": 4.4118065,
      "tags": {
        "addr:postcode": "42670",
        "name": "Belleroche",
        "place": "village",
        "population": "312",
        "ref:FR:SIREN": "214200149",
        "source:population": "INSEE 2016",
        "wikidata": "Q625976",
        "wikipedia": "fr:Belleroche (Loire)"
      }
    },
    {
      "type": "node",
      "id": 82343637,
      "lat": 45.3852114,
      "lon": 4.6957676,
      "tags": {
        "addr:postcode": "42520",
        "name": "Bessey",
        "place": "village",
        "population": "455",
        "ref:FR:SIREN": "214200180",
        "source:population": "INSEE 2016",
        "wikidata": "Q1339655",
        "wikipedia": "fr:Bessey"
      }
    },
    {
      "type": "node",
      "id": 82343641,
      "lat": 46.0982549,
      "lon": 4.2095256,
      "tags": {
        "addr:postcode": "42460",
        "name": "Boyer",
        "place": "village",
        "population": "200",
        "ref:FR:SIREN": "214200255",
        "source:population": "INSEE 2016",
        "wikidata": "Q1066237",
        "wikipedia": "fr:Boyer (Loire)"
      }
    },
    {
      "type": "node",
      "id": 82343642,
      "lat": 45.2695373,
      "lon": 4.5643317,
      "tags": {
        "addr:postcode": "42220",
        "name": "Burdignes",
        "name:oc": "Burdinhat",
        "place": "village",
        "population": "360",
        "ref:FR:SIREN": "214200289",
        "source:name:oc": "ieo-bdtopoc",
        "source:population": "INSEE 2014",
        "website": "http://www.burdignes.com",
        "wikidata": "Q1068696",
        "wikipedia": "fr:Burdignes"
      }
    },
    {
      "type": "node",
      "id": 82343643,
      "lat": 45.9278000,
      "lon": 4.0062800,
      "tags": {
        "addr:postcode": "42260",
        "name": "Bully",
        "place": "village",
        "population": "411",
        "ref:FR:SIREN": "214200271",
        "source:population": "INSEE 2016",
        "wikidata": "Q1066095",
        "wikipedia": "fr:Bully (Loire)"
      }
    },
    {
      "type": "node",
      "id": 82343644,
      "lat": 45.7938680,
      "lon": 4.0336478,
      "tags": {
        "addr:postcode": "42260",
        "name": "Bussy-Albieux",
        "place": "village",
        "population": "537",
        "ref:FR:SIREN": "214200305",
        "source:population": "INSEE 2016",
        "website": "http://www.bussy-albieux.fr",
        "wikidata": "Q1068664",
        "wikipedia": "fr:Bussy-Albieux"
      }
    },
    {
      "type": "node",
      "id": 82343647,
      "lat": 45.4184071,
      "lon": 4.2431353,
      "tags": {
        "addr:postcode": "42240",
        "name": "Çaloire",
        "name:oc": "Çaileire",
        "official_name": "Caloire",
        "place": "village",
        "population": "328",
        "ref:FR:SIREN": "214200313",
        "source:name:oc": "ieo-bdtopoc",
        "source:population": "INSEE 2016",
        "wikidata": "Q430475",
        "wikipedia": "fr:Çaloire"
      }
    },
    {
      "type": "node",
      "id": 82343648,
      "lat": 45.8019750,
      "lon": 3.9644811,
      "tags": {
        "addr:postcode": "42130",
        "name": "Cezay",
        "place": "village",
        "population": "224",
        "ref:FR:SIREN": "214200354",
        "source:population": "INSEE 2016",
        "website": "https://cezay.fr",
        "wikidata": "Q1066189",
        "wikipedia": "fr:Cezay"
      }
    },
    {
      "type": "node",
      "id": 82343649,
      "lat": 45.8477259,
      "lon": 3.7716380,
      "tags": {
        "addr:postcode": "42440",
        "name": "Cervières",
        "name:oc": "Cerveira",
        "place": "village",
        "population": "126",
        "ref:FR:SIREN": "214200347",
        "source:name:oc": "ieo-bdtopoc",
        "source:population": "INSEE 2016",
        "wikidata": "Q370623",
        "wikipedia": "fr:Cervières (Loire)"
      }
    },
    {
      "type": "node",
      "id": 82343650,
      "lat": 45.6730217,
      "lon": 4.0713993,
      "tags": {
        "addr:postcode": "42600",
        "name": "Chalain-d'Uzore",
        "place": "village",
        "population": "539",
        "ref:FR:SIREN": "214200370",
        "source:population": "INSEE 2016",
        "website": "https://chalainduzore.wordpress.com",
        "wikidata": "Q1068632",
        "wikipedia": "fr:Chalain-d'Uzore"
      }
    },
    {
      "type": "node",
      "id": 82343653,
      "lat": 45.6461839,
      "lon": 4.1691566,
      "tags": {
        "addr:postcode": "42600",
        "name": "Chalain-le-Comtal",
        "place": "village",
        "population": "712",
        "ref:FR:SIREN": "214200388",
        "source:population": "INSEE 2016",
        "wikidata": "Q1068781",
        "wikipedia": "fr:Chalain-le-Comtal"
      }
    },
    {
      "type": "node",
      "id": 82343654,
      "lat": 45.4420000,
      "lon": 4.2373000,
      "tags": {
        "addr:postcode": "42170",
        "name": "Chambles",
        "name:oc": "Chambla",
        "place": "village",
        "population": "987",
        "ref:FR:SIREN": "214200420",
        "source:name:oc": "ieo-bdtopoc",
        "source:population": "INSEE 2016",
        "website": "http://www.chambles.fr",
        "wikidata": "Q655706",
        "wikipedia": "fr:Chambles"
      }
    },
    {
      "type": "node",
      "id": 82343656,
      "lat": 45.6955000,
      "lon": 4.1748500,
      "tags": {
        "addr:postcode": "42110",
        "name": "Chambéon",
        "place": "village",
        "population": "541",
        "ref:FR:SIREN": "214200412",
        "source:population": "INSEE 2016",
        "wikidata": "Q730515",
        "wikipedia": "fr:Chambéon"
      }
    },
    {
      "type": "node",
      "id": 82343657,
      "lat": 45.8576913,
      "lon": 3.8343571,
      "tags": {
        "addr:postcode": "42430",
        "name": "Champoly",
        "place": "village",
        "population": "328",
        "ref:FR:SIREN": "214200479",
        "source:population": "INSEE 2016",
        "website": "https://champoly.fr",
        "wikidata": "Q1068650",
        "wikipedia": "fr:Champoly"
      }
    },
    {
      "type": "node",
      "id": 82343661,
      "lat": 45.6374433,
      "lon": 3.9820245,
      "tags": {
        "addr:postcode": "42940",
        "name": "Châtelneuf",
        "place": "village",
        "population": "328",
        "ref:FR:SIREN": "214200545",
        "source:population": "INSEE 2016",
        "website": "https://www.chatelneuf.fr",
        "wikidata": "Q1066249",
        "wikipedia": "fr:Châtelneuf (Loire)"
      }
    },
    {
      "type": "node",
      "id": 82343662,
      "lat": 45.5964011,
      "lon": 4.4652400,
      "tags": {
        "addr:postcode": "42140",
        "name": "Châtelus",
        "name:uk": "Шатлю",
        "name:zh": "沙泰吕",
        "place": "village",
        "population": "135",
        "ref:FR:SIREN": "214200552",
        "source:population": "INSEE 2016",
        "wikidata": "Q1339433",
        "wikipedia": "fr:Châtelus (Loire)"
      }
    },
    {
      "type": "node",
      "id": 82343664,
      "lat": 46.1416642,
      "lon": 3.8916977,
      "tags": {
        "addr:postcode": "42310",
        "name": "Changy",
        "place": "village",
        "population": "629",
        "ref:FR:SIREN": "214200495",
        "source:population": "INSEE 2016",
        "website": "http://www.changy.fr",
        "wikidata": "Q1068656",
        "wikipedia": "fr:Changy (Loire)"
      }
    },
    {
      "type": "node",
      "id": 82343666,
      "lat": 45.4829000,
      "lon": 4.0807600,
      "tags": {
        "addr:postcode": "42560",
        "name": "Chenereilles",
        "name:oc": "Chanalelhes",
        "place": "village",
        "population": "522",
        "ref:FR:SIREN": "214200602",
        "source:name:oc": "ieo-bdtopoc",
        "source:population": "INSEE 2016",
        "wikidata": "Q1068789",
        "wikipedia": "fr:Chenereilles (Loire)"
      }
    },
    {
      "type": "node",
      "id": 82343667,
      "lat": 45.9795059,
      "lon": 3.9187627,
      "tags": {
        "addr:postcode": "42430",
        "alt_name": "Chérier",
        "name": "Cherier",
        "place": "village",
        "population": "555",
        "ref:FR:SIREN": "214200610",
        "source:population": "INSEE 2016",
        "website": "https://www.cherier.fr",
        "wikidata": "Q738481",
        "wikipedia": "fr:Cherier"
      }
    },
    {
      "type": "node",
      "id": 82343668,
      "lat": 45.8964000,
      "lon": 3.7845300,
      "tags": {
        "addr:postcode": "42430",
        "name": "Chausseterre",
        "name:oc": "Chauchatèrra",
        "place": "village",
        "population": "231",
        "ref:FR:SIREN": "214203390",
        "source:name:oc": "wikipedia",
        "source:population": "INSEE 2016",
        "website": "http://chausseterre.fr",
        "wikidata": "Q958374",
        "wikipedia": "fr:Chausseterre"
      }
    },
    {
      "type": "node",
      "id": 82343670,
      "lat": 45.5388000,
      "lon": 4.0016400,
      "tags": {
        "addr:postcode": "42560",
        "name": "Chazelles-sur-Lavieu",
        "place": "village",
        "population": "283",
        "ref:FR:SIREN": "214200586",
        "source:population": "INSEE 2016",
        "website": "https://chazelles-sur-lavieu.fr",
        "wikidata": "Q1068796",
        "wikipedia": "fr:Chazelles-sur-Lavieu"
      }
    },
    {
      "type": "node",
      "id": 82343671,
      "lat": 45.4570686,
      "lon": 4.6937054,
      "tags": {
        "addr:postcode": "42410",
        "name": "Chuyer",
        "place": "village",
        "population": "777",
        "ref:FR:SIREN": "214200644",
        "source:population": "INSEE 2016",
        "website": "http://www.chuyer.fr",
        "wikidata": "Q1065964",
        "wikipedia": "fr:Chuyer"
      }
    },
    {
      "type": "node",
      "id": 82343676,
      "lat": 45.9142000,
      "lon": 4.2836100,
      "tags": {
        "addr:postcode": "42114",
        "name": "Chirassimont",
        "place": "village",
        "population": "400",
        "ref:FR:SIREN": "214200636",
        "source:population": "INSEE 2016",
        "website": "https://www.chirassimont.fr",
        "wikidata": "Q1066115",
        "wikipedia": "fr:Chirassimont"
      }
    },
    {
      "type": "node",
      "id": 82343678,
      "lat": 45.9441000,
      "lon": 4.0605800,
      "tags": {
        "addr:postcode": "42123",
        "name": "Cordelle",
        "place": "village",
        "population": "903",
        "ref:FR:SIREN": "214200701",
        "source:population": "INSEE 2016",
        "website": "http://www.cordelle.fr",
        "wikidata": "Q1065978",
        "wikipedia": "fr:Cordelle"
      }
    },
    {
      "type": "node",
      "id": 82343680,
      "lat": 46.0259691,
      "lon": 4.2638735,
      "tags": {
        "addr:postcode": "42840",
        "name": "Combre",
        "place": "village",
        "population": "440",
        "ref:FR:SIREN": "214200685",
        "source:population": "INSEE 2016",
        "website": "http://www.combre.fr",
        "wikidata": "Q370427",
        "wikipedia": "fr:Combre"
      }
    },
    {
      "type": "node",
      "id": 82343681,
      "lat": 45.3380000,
      "lon": 4.5990900,
      "tags": {
        "addr:postcode": "42220",
        "name": "Colombier",
        "name:oc": "Colombeir",
        "place": "village",
        "population": "308",
        "ref:FR:SIREN": "214200677",
        "source:name:oc": "ieo-bdtopoc",
        "source:population": "INSEE 2014",
        "website": "http://colombier-pilat.e-monsite.com",
        "wikidata": "Q1021139",
        "wikipedia": "fr:Colombier (Loire)"
      }
    },
    {
      "type": "node",
      "id": 82343683,
      "lat": 45.7687000,
      "lon": 4.1791400,
      "tags": {
        "addr:postcode": "42110",
        "name": "Cleppé",
        "place": "village",
        "population": "544",
        "ref:FR:SIREN": "214200669",
        "source:population": "INSEE 2016",
        "wikidata": "Q1066084",
        "wikipedia": "fr:Cleppé"
      }
    },
    {
      "type": "node",
      "id": 82343684,
      "lat": 45.9077812,
      "lon": 3.9280922,
      "tags": {
        "addr:postcode": "42260",
        "name": "Cremeaux",
        "place": "village",
        "population": "908",
        "ref:FR:SIREN": "214200768",
        "source:population": "INSEE 2016",
        "wikidata": "Q740466",
        "wikipedia": "fr:Cremeaux"
      }
    },
    {
      "type": "node",
      "id": 82343687,
      "lat": 45.7936000,
      "lon": 4.2983000,
      "tags": {
        "addr:postcode": "42360",
        "name": "Cottance",
        "place": "village",
        "population": "708",
        "ref:FR:SIREN": "214200735",
        "source:population": "INSEE 2016",
        "website": "https://www.cottance.com",
        "wikidata": "Q1150845",
        "wikipedia": "fr:Cottance"
      }
    },
    {
      "type": "node",
      "id": 82343688,
      "lat": 45.9030000,
      "lon": 4.0275000,
      "tags": {
        "addr:postcode": "42260",
        "name": "Dancé",
        "place": "village",
        "population": "172",
        "ref:FR:SIREN": "214200826",
        "source:population": "INSEE 2016",
        "wikidata": "Q1149926",
        "wikipedia": "fr:Dancé (Loire)"
      }
    },
    {
      "type": "node",
      "id": 82343691,
      "lat": 46.1275133,
      "lon": 4.2667591,
      "tags": {
        "addr:postcode": "42460",
        "name": "Cuinzier",
        "place": "village",
        "population": "737",
        "ref:FR:SIREN": "214200792",
        "source:population": "INSEE 2016",
        "wikidata": "Q1066171",
        "wikipedia": "fr:Cuinzier"
      }
    },
    {
      "type": "node",
      "id": 82343692,
      "lat": 45.9161000,
      "lon": 4.2300900,
      "tags": {
        "addr:postcode": "42540",
        "name": "Croizet-sur-Gand",
        "place": "village",
        "population": "315",
        "ref:FR:SIREN": "214200776",
        "source:population": "INSEE 2016",
        "wikidata": "Q1066041",
        "wikipedia": "fr:Croizet-sur-Gand"
      }
    },
    {
      "type": "node",
      "id": 82343693,
      "lat": 46.1616000,
      "lon": 4.2989900,
      "tags": {
        "addr:postcode": "42670",
        "name": "Écoche",
        "place": "village",
        "population": "548",
        "ref:FR:SIREN": "214200867",
        "source:population": "INSEE 2016",
        "wikidata": "Q1106875",
        "wikipedia": "fr:Écoche"
      }
    },
    {
      "type": "node",
      "id": 82343695,
      "lat": 45.4274664,
      "lon": 4.5843226,
      "tags": {
        "addr:postcode": "42740",
        "name": "Doizieux",
        "place": "village",
        "population": "824",
        "ref:FR:SIREN": "214200859",
        "source:population": "INSEE 2016",
        "wikidata": "Q1151559",
        "wikipedia": "fr:Doizieux"
      }
    },
    {
      "type": "node",
      "id": 82343697,
      "lat": 45.7599530,
      "lon": 3.9410465,
      "tags": {
        "addr:postcode": "42130",
        "name": "Débats-Rivière-d'Orpra",
        "place": "village",
        "population": "156",
        "ref:FR:SIREN": "214200842",
        "source:population": "INSEE 2016",
        "wikidata": "Q1151152",
        "wikipedia": "fr:Débats-Rivière-d'Orpra"
      }
    },
    {
      "type": "node",
      "id": 82343699,
      "lat": 45.5604000,
      "lon": 4.6681600,
      "tags": {
        "addr:postcode": "42800",
        "name": "Dargoire",
        "place": "village",
        "population": "516",
        "ref:FR:SIREN": "214200834",
        "source:population": "INSEE 2016",
        "website": "http://www.dargoire.fr",
        "wikidata": "Q1068626",
        "wikipedia": "fr:Dargoire"
      }
    },
    {
      "type": "node",
      "id": 82343701,
      "lat": 45.4165017,
      "lon": 4.0084542,
      "tags": {
        "addr:postcode": "42380",
        "name": "Estivareilles",
        "name:oc": "Estivalelhes",
        "place": "village",
        "population": "690",
        "ref:FR:SIREN": "214200917",
        "source:name:oc": "ieo-bdtopoc",
        "source:population": "INSEE 2016",
        "wikidata": "Q1151544",
        "wikipedia": "fr:Estivareilles (Loire)"
      }
    },
    {
      "type": "node",
      "id": 82343704,
      "lat": 45.5470067,
      "lon": 4.4374524,
      "tags": {
        "name": "Fontanès",
        "place": "village",
        "population": "672",
        "postal_code": "42140",
        "ref:FR:SIREN": "214200966",
        "source:population": "INSEE 2016",
        "website": "http://www.fontanes-42.fr",
        "wikidata": "Q1066049",
        "wikipedia": "fr:Fontanès (Loire)"
      }
    },
    {
      "type": "node",
      "id": 82344164,
      "lat": 45.7918000,
      "lon": 4.2090277,
      "tags": {
        "addr:postcode": "42110",
        "name": "Épercieux-Saint-Paul",
        "place": "village",
        "population": "727",
        "ref:FR:SIREN": "214200883",
        "source:population": "INSEE 2016",
        "website": "https://www.epercieux-saint-paul.fr",
        "wikidata": "Q1106913",
        "wikipedia": "fr:Épercieux-Saint-Paul"
      }
    },
    {
      "type": "node",
      "id": 82344168,
      "lat": 45.6189117,
      "lon": 3.9965495,
      "tags": {
        "addr:postcode": "42600",
        "name": "Essertines-en-Châtelneuf",
        "place": "village",
        "population": "689",
        "ref:FR:SIREN": "214200891",
        "source:population": "INSEE 2016",
        "website": "https://essertines-en-chatelneuf.fr",
        "wikidata": "Q1066074",
        "wikipedia": "fr:Essertines-en-Châtelneuf"
      }
    },
    {
      "type": "node",
      "id": 82344172,
      "lat": 45.7540099,
      "lon": 4.3447809,
      "tags": {
        "addr:postcode": "42360",
        "name": "Essertines-en-Donzy",
        "place": "village",
        "population": "489",
        "ref:FR:SIREN": "214200909",
        "source:population": "INSEE 2016",
        "website": "https://www.essertinesendonzy.fr",
        "wikidata": "Q637055",
        "wikipedia": "fr:Essertines-en-Donzy"
      }
    },
    {
      "type": "node",
      "id": 82344177,
      "lat": 45.5316000,
      "lon": 3.9877200,
      "tags": {
        "addr:postcode": "42560",
        "name": "Gumières",
        "place": "village",
        "population": "323",
        "ref:FR:SIREN": "214201071",
        "source:population": "INSEE 2016",
        "website": "http://www.gumieres.fr",
        "wikidata": "Q1155240",
        "wikipedia": "fr:Gumières"
      }
    },
    {
      "type": "node",
      "id": 82344180,
      "lat": 46.1085459,
      "lon": 4.2316196,
      "tags": {
        "addr:postcode": "42460",
        "name": "Jarnosse",
        "place": "village",
        "population": "443",
        "ref:FR:SIREN": "214201121",
        "source:population": "INSEE 2016",
        "wikidata": "Q1151452",
        "wikipedia": "fr:Jarnosse"
      }
    },
    {
      "type": "node",
      "id": 82344184,
      "lat": 45.7454596,
      "lon": 4.3112977,
      "tags": {
        "addr:postcode": "42110",
        "name": "Jas",
        "place": "village",
        "population": "223",
        "ref:FR:SIREN": "214201139",
        "source:population": "INSEE 2016",
        "website": "https://mairie-jas.fr",
        "wikidata": "Q1151425",
        "wikipedia": "fr:Jas (Loire)"
      }
    },
    {
      "type": "node",
      "id": 82344186,
      "lat": 45.3481000,
      "lon": 4.5697900,
      "tags": {
        "addr:postcode": "42220",
        "name": "Graix",
        "place": "village",
        "population": "149",
        "ref:FR:SIREN": "214201014",
        "source:population": "INSEE 2014",
        "wikidata": "Q1155269",
        "wikipedia": "fr:Graix"
      }
    },
    {
      "type": "node",
      "id": 82344188,
      "lat": 45.5644000,
      "lon": 4.4417800,
      "tags": {
        "addr:postcode": "42140",
        "name": "Grammond",
        "place": "village",
        "population": "898",
        "ref:FR:SIREN": "214201022",
        "source:population": "INSEE 2016",
        "website": "http://www.grammond.fr",
        "wikidata": "Q509208",
        "wikipedia": "fr:Grammond"
      }
    },
    {
      "type": "node",
      "id": 82344190,
      "lat": 45.6190000,
      "lon": 4.1515500,
      "tags": {
        "addr:postcode": "42600",
        "name": "Grézieux-le-Fromental",
        "place": "village",
        "population": "224",
        "ref:FR:SIREN": "214201055",
        "source:population": "INSEE 2016",
        "wikidata": "Q1155324",
        "wikipedia": "fr:Grézieux-le-Fromental"
      }
    },
    {
      "type": "node",
      "id": 82344195,
      "lat": 45.8628000,
      "lon": 3.9517200,
      "tags": {
        "addr:postcode": "42260",
        "name": "Grézolles",
        "place": "village",
        "population": "269",
        "ref:FR:SIREN": "214201063",
        "source:population": "INSEE 2016",
        "website": "http://www.grezolles.fr",
        "wikidata": "Q1155257",
        "wikipedia": "fr:Grézolles"
      }
    },
    {
      "type": "node",
      "id": 82344202,
      "lat": 45.7556472,
      "lon": 3.7577075,
      "tags": {
        "addr:postcode": "42440",
        "name": "La Chamba",
        "name:oc": "La Chambaa",
        "place": "village",
        "population": "51",
        "ref:FR:SIREN": "214200404",
        "source:name:oc": "ieo-bdtopoc",
        "source:population": "INSEE 2016",
        "wikidata": "Q1068769",
        "wikipedia": "fr:La Chamba"
      }
    },
    {
      "type": "node",
      "id": 82344207,
      "lat": 46.1501712,
      "lon": 4.0452285,
      "tags": {
        "addr:postcode": "42720",
        "name": "La Bénisson-Dieu",
        "place": "village",
        "population": "417",
        "ref:FR:SIREN": "214200164",
        "source:population": "INSEE 2016",
        "wikidata": "Q548020",
        "wikipedia": "fr:La Bénisson-Dieu"
      }
    },
    {
      "type": "node",
      "id": 82344209,
      "lat": 45.4627000,
      "lon": 3.9890900,
      "tags": {
        "addr:postcode": "42380",
        "name": "La Chapelle-en-Lafaye",
        "name:oc": "La Chapèla de Montarchier",
        "place": "village",
        "population": "112",
        "ref:FR:SIREN": "214200503",
        "source:name:oc": "ieo-bdtopoc",
        "source:population": "INSEE 2016",
        "website": "http://www.la-chapelle-en-lafaye.fr",
        "wikidata": "Q1068687",
        "wikipedia": "fr:La Chapelle-en-Lafaye"
      }
    },
    {
      "type": "node",
      "id": 82344215,
      "lat": 45.7474179,
      "lon": 3.7486811,
      "tags": {
        "addr:postcode": "42440",
        "name": "La Chambonie",
        "name:oc": "La Chambaniá",
        "place": "village",
        "population": "43",
        "ref:FR:SIREN": "214200453",
        "source:name:oc": "ieo-bdtopoc",
        "source:population": "INSEE 2016",
        "wikidata": "Q1068719",
        "wikipedia": "fr:La Chambonie"
      }
    },
    {
      "type": "node",
      "id": 82344221,
      "lat": 45.8841122,
      "lon": 3.8908993,
      "tags": {
        "addr:postcode": "42430",
        "name": "Juré",
        "place": "village",
        "population": "241",
        "ref:FR:SIREN": "214201162",
        "source:population": "INSEE 2016",
        "website": "http://mairiejure.blogspot.com",
        "wikidata": "Q1150821",
        "wikipedia": "fr:Juré (Loire)"
      }
    },
    {
      "type": "node",
      "id": 82344228,
      "lat": 45.7740620,
      "lon": 3.9344530,
      "tags": {
        "addr:postcode": "42130",
        "name": "L'Hôpital-sous-Rochefort",
        "place": "village",
        "population": "111",
        "ref:FR:SIREN": "214201097",
        "source:population": "INSEE 2016",
        "website": "https://www.hopital-sous-rochefort.fr",
        "wikidata": "Q1094576",
        "wikipedia": "fr:L'Hôpital-sous-Rochefort"
      }
    },
    {
      "type": "node",
      "id": 82344308,
      "lat": 45.4476000,
      "lon": 4.5843100,
      "tags": {
        "addr:postcode": "42740",
        "name": "La Terrasse-sur-Dorlay",
        "place": "village",
        "population": "783",
        "ref:FR:SIREN": "214203085",
        "source:population": "INSEE 2016",
        "website": "http://www.la-terrasse-sur-dorlay.com",
        "wikidata": "Q1105681",
        "wikipedia": "fr:La Terrasse-sur-Dorlay"
      }
    },
    {
      "type": "node",
      "id": 82344316,
      "lat": 45.4150000,
      "lon": 4.0818000,
      "tags": {
        "addr:postcode": "42380",
        "name": "La Tourette",
        "name:oc": "La Torreta",
        "place": "village",
        "population": "573",
        "ref:FR:SIREN": "214203127",
        "source:name:oc": "ieo-bdtopoc",
        "source:population": "INSEE 2016",
        "wikidata": "Q1164420",
        "wikipedia": "fr:La Tourette (Loire)"
      }
    },
    {
      "type": "node",
      "id": 82344328,
      "lat": 45.7815411,
      "lon": 3.8417121,
      "tags": {
        "addr:postcode": "42111",
        "name": "La Côte-en-Couzan",
        "place": "village",
        "population": "70",
        "ref:FR:SIREN": "214200727",
        "source:population": "INSEE 2016",
        "wikidata": "Q1066000",
        "wikipedia": "fr:La Côte-en-Couzan"
      }
    },
    {
      "type": "node",
      "id": 82344333,
      "lat": 45.4727783,
      "lon": 4.7191611,
      "tags": {
        "addr:postcode": "42410",
        "name": "La Chapelle-Villars",
        "place": "village",
        "population": "529",
        "ref:FR:SIREN": "214200511",
        "source:population": "INSEE 2016",
        "wikidata": "Q971306",
        "wikipedia": "fr:La Chapelle-Villars"
      }
    },
    {
      "type": "node",
      "id": 82344337,
      "lat": 46.0751001,
      "lon": 4.2816299,
      "tags": {
        "addr:postcode": "42460",
        "name": "La Gresle",
        "place": "village",
        "population": "833",
        "ref:FR:SIREN": "214201048",
        "source:population": "INSEE 2016",
        "website": "http://www.mairielagresle.fr",
        "wikidata": "Q1106951",
        "wikipedia": "fr:La Gresle"
      }
    },
    {
      "type": "node",
      "id": 82344338,
      "lat": 45.5573957,
      "lon": 4.4108588,
      "tags": {
        "addr:postcode": "42140",
        "name": "La Gimond",
        "place": "village",
        "population": "280",
        "ref:FR:SIREN": "214201006",
        "source:population": "INSEE 2016",
        "wikidata": "Q1065989",
        "wikipedia": "fr:La Gimond"
      }
    },
    {
      "type": "node",
      "id": 82344340,
      "lat": 45.3688435,
      "lon": 4.5150122,
      "tags": {
        "addr:postcode": "42660",
        "name": "Le Bessat",
        "place": "village",
        "population": "446",
        "ref:FR:SIREN": "214200172",
        "source:population": "INSEE 2014",
        "website": "http://www.mairie-le-bessat.fr",
        "wikidata": "Q1066212",
        "wikipedia": "fr:Le Bessat"
      }
    },
    {
      "type": "node",
      "id": 82344342,
      "lat": 46.1220582,
      "lon": 4.3066139,
      "tags": {
        "addr:postcode": "42460",
        "name": "Le Cergne",
        "place": "village",
        "population": "652",
        "ref:FR:SIREN": "214200339",
        "source:population": "INSEE 2016",
        "website": "https://www.lecergne.fr",
        "wikidata": "Q777946",
        "wikipedia": "fr:Le Cergne"
      }
    },
    {
      "type": "node",
      "id": 82344345,
      "lat": 45.5385000,
      "lon": 4.0348000,
      "tags": {
        "addr:postcode": "42560",
        "name": "Lavieu",
        "place": "village",
        "population": "117",
        "ref:FR:SIREN": "214201170",
        "source:population": "INSEE 2016",
        "wikidata": "Q1150835",
        "wikipedia": "fr:Lavieu"
      }
    },
    {
      "type": "node",
      "id": 82344346,
      "lat": 45.9562725,
      "lon": 4.2189216,
      "tags": {
        "addr:postcode": "42470",
        "name": "Lay",
        "place": "village",
        "population": "742",
        "ref:FR:SIREN": "214201188",
        "source:population": "INSEE 2016",
        "wikidata": "Q1116198",
        "wikipedia": "fr:Lay (Loire)"
      }
    },
    {
      "type": "node",
      "id": 82344348,
      "lat": 45.3174000,
      "lon": 4.5263200,
      "tags": {
        "addr:postcode": "42220",
        "name": "La Versanne",
        "name:oc": "La Versana",
        "place": "village",
        "population": "369",
        "ref:FR:SIREN": "214203291",
        "source:name:oc": "ieo-bdtopoc",
        "source:population": "INSEE 2014",
        "wikidata": "Q1164479",
        "wikipedia": "fr:La Versanne"
      }
    },
    {
      "type": "node",
      "id": 82344352,
      "lat": 45.9451431,
      "lon": 3.8015745,
      "tags": {
        "addr:postcode": "42830",
        "name": "La Tuilière",
        "place": "village",
        "population": "290",
        "ref:FR:SIREN": "214203143",
        "source:population": "INSEE 2016",
        "website": "https://latuiliere42.fr",
        "wikidata": "Q1105573",
        "wikipedia": "fr:La Tuilière"
      }
    },
    {
      "type": "node",
      "id": 82344356,
      "lat": 45.7596201,
      "lon": 3.8518507,
      "tags": {
        "addr:postcode": "42111",
        "name": "La Valla-sur-Rochefort",
        "place": "village",
        "population": "107",
        "ref:FR:SIREN": "214203218",
        "source:population": "INSEE 2016",
        "website": "https://lavallasurrochefort.jimdofree.com",
        "wikidata": "Q1094384",
        "wikipedia": "fr:La Valla-sur-Rochefort"
      }
    },
    {
      "type": "node",
      "id": 82344364,
      "lat": 45.3735325,
      "lon": 4.7061654,
      "tags": {
        "addr:postcode": "42520",
        "name": "Lupé",
        "place": "village",
        "population": "313",
        "ref:FR:SIREN": "214201246",
        "source:population": "INSEE 2016",
        "website": "https://mairielupe.wordpress.com",
        "wikidata": "Q1339488",
        "wikipedia": "fr:Lupé"
      }
    },
    {
      "type": "node",
      "id": 82344369,
      "lat": 46.0411810,
      "lon": 3.8516602,
      "tags": {
        "addr:postcode": "42370",
        "name": "Les Noës",
        "place": "village",
        "population": "208",
        "ref:FR:SIREN": "214201584",
        "source:population": "INSEE 2016",
        "wikidata": "Q771979",
        "wikipedia": "fr:Les Noës"
      }
    },
    {
      "type": "node",
      "id": 82344372,
      "lat": 45.8468000,
      "lon": 3.7931300,
      "tags": {
        "addr:postcode": "42440",
        "name": "Les Salles",
        "name:oc": "Salas",
        "place": "village",
        "population": "527",
        "source:name:oc": "ieo-bdtopoc",
        "source:population": "INSEE 2016",
        "website": "http://www.lessalles42.fr",
        "wikidata": "Q780725",
        "wikipedia": "fr:Les Salles"
      }
    },
    {
      "type": "node",
      "id": 82344383,
      "lat": 45.6018308,
      "lon": 3.9648448,
      "tags": {
        "addr:postcode": "42600",
        "name": "Lérigneux",
        "place": "village",
        "population": "156",
        "ref:FR:SIREN": "214201212",
        "source:population": "INSEE 2016",
        "website": "http://commune-lerigneux.fr",
        "wikidata": "Q1107482",
        "wikipedia": "fr:Lérigneux"
      }
    },
    {
      "type": "node",
      "id": 82344387,
      "lat": 46.1706000,
      "lon": 3.8554100,
      "tags": {
        "addr:postcode": "42310",
        "name": "Le Crozet",
        "place": "village",
        "population": "280",
        "ref:FR:SIREN": "214200784",
        "source:population": "INSEE 2016",
        "website": "http://www.lecrozet.com",
        "wikidata": "Q1066159",
        "wikipedia": "fr:Le Crozet"
      }
    },
    {
      "type": "node",
      "id": 82344393,
      "lat": 45.7508314,
      "lon": 3.9753850,
      "tags": {
        "addr:postcode": "42130",
        "name": "Leigneux",
        "place": "village",
        "population": "380",
        "ref:FR:SIREN": "214201196",
        "source:population": "INSEE 2016",
        "website": "http://www.leigneux.fr",
        "wikidata": "Q1116075",
        "wikipedia": "fr:Leigneux"
      }
    },
    {
      "type": "node",
      "id": 82344394,
      "lat": 45.5717866,
      "lon": 4.4821727,
      "tags": {
        "addr:postcode": "42140",
        "name": "Marcenod",
        "place": "village",
        "population": "718",
        "ref:FR:SIREN": "214201337",
        "source:population": "INSEE 2016",
        "website": "http://www.marcenod.fr",
        "wikidata": "Q959318",
        "wikipedia": "fr:Marcenod"
      }
    },
    {
      "type": "node",
      "id": 82344396,
      "lat": 45.3834585,
      "lon": 4.7272647,
      "tags": {
        "addr:postcode": "42520",
        "name": "Malleval",
        "place": "village",
        "population": "578",
        "ref:FR:SIREN": "214201329",
        "source:population": "INSEE 2016",
        "website": "http://mairie-malleval.fr",
        "wikidata": "Q1339458",
        "wikipedia": "fr:Malleval (Loire)"
      }
    },
    {
      "type": "node",
      "id": 82344399,
      "lat": 46.1786000,
      "lon": 4.2444300,
      "tags": {
        "addr:postcode": "42750",
        "name": "Maizilly",
        "place": "village",
        "population": "338",
        "ref:FR:SIREN": "214201311",
        "source:population": "INSEE 2016",
        "website": "https://www.maizilly.fr",
        "wikidata": "Q607691",
        "wikipedia": "fr:Maizilly"
      }
    },
    {
      "type": "node",
      "id": 82344405,
      "lat": 45.6694153,
      "lon": 4.1717613,
      "tags": {
        "addr:postcode": "42600",
        "name": "Magneux-Haute-Rive",
        "place": "village",
        "population": "557",
        "ref:FR:SIREN": "214201303",
        "source:population": "INSEE 2016",
        "website": "https://magneuxhauterive.fr",
        "wikidata": "Q1107504",
        "wikipedia": "fr:Magneux-Haute-Rive"
      }
    },
    {
      "type": "node",
      "id": 82344414,
      "lat": 45.9215597,
      "lon": 4.3030364,
      "tags": {
        "addr:postcode": "42114",
        "name": "Machézal",
        "place": "village",
        "population": "388",
        "ref:FR:SIREN": "214201287",
        "source:population": "INSEE 2016",
        "website": "http://www.machezal.fr",
        "wikidata": "Q1339506",
        "wikipedia": "fr:Machézal"
      }
    },
    {
      "type": "node",
      "id": 82344425,
      "lat": 45.8812000,
      "lon": 3.9381400,
      "tags": {
        "addr:postcode": "42260",
        "name": "Luré",
        "place": "village",
        "population": "146",
        "ref:FR:SIREN": "214201253",
        "source:population": "INSEE 2016",
        "wikidata": "Q593333",
        "wikipedia": "fr:Luré"
      }
    },
    {
      "type": "node",
      "id": 82344429,
      "lat": 46.1534653,
      "lon": 4.2468977,
      "tags": {
        "addr:postcode": "42750",
        "name": "Mars",
        "place": "village",
        "population": "558",
        "ref:FR:SIREN": "214201410",
        "source:population": "INSEE 2016",
        "website": "http://communedemars.fr",
        "wikidata": "Q1116491",
        "wikipedia": "fr:Mars (Loire)"
      }
    },
    {
      "type": "node",
      "id": 82344430,
      "lat": 45.4782091,
      "lon": 4.0467361,
      "tags": {
        "addr:postcode": "42560",
        "name": "Marols",
        "name:oc": "Maròls",
        "place": "village",
        "population": "414",
        "ref:FR:SIREN": "214201402",
        "source:name:oc": "ieo-bdtopoc",
        "source:population": "INSEE 2016",
        "website": "http://www.marols.fr",
        "wikidata": "Q1339588",
        "wikipedia": "fr:Marols"
      }
    },
    {
      "type": "node",
      "id": 82344432,
      "lat": 45.6615000,
      "lon": 4.3516600,
      "tags": {
        "addr:postcode": "42140",
        "name": "Maringes",
        "place": "village",
        "population": "670",
        "ref:FR:SIREN": "214201386",
        "source:population": "INSEE 2016",
        "website": "https://mairie-maringes.fr",
        "wikidata": "Q1116364",
        "wikipedia": "fr:Maringes"
      }
    },
    {
      "type": "node",
      "id": 82344433,
      "lat": 45.5253000,
      "lon": 4.0672700,
      "tags": {
        "addr:postcode": "42560",
        "name": "Margerie-Chantagret",
        "place": "village",
        "population": "802",
        "ref:FR:SIREN": "214201378",
        "source:population": "INSEE 2016",
        "website": "http://mairie-margerie.wixsite.com/mairie",
        "wikidata": "Q1116128",
        "wikipedia": "fr:Margerie-Chantagret"
      }
    },
    {
      "type": "node",
      "id": 82344435,
      "lat": 45.6656172,
      "lon": 4.2090677,
      "tags": {
        "addr:postcode": "42210",
        "name": "Marclopt",
        "place": "village",
        "population": "509",
        "ref:FR:SIREN": "214201352",
        "source:population": "INSEE 2016",
        "website": "http://www.marclopt.fr",
        "wikidata": "Q665538",
        "wikipedia": "fr:Marclopt"
      }
    },
    {
      "type": "node",
      "id": 82344440,
      "lat": 45.9626000,
      "lon": 4.1809400,
      "tags": {
        "addr:postcode": "42470",
        "name": "Neaux",
        "place": "village",
        "population": "479",
        "ref:FR:SIREN": "214201535",
        "source:population": "INSEE 2016",
        "wikidata": "Q593048",
        "wikipedia": "fr:Neaux"
      }
    },
    {
      "type": "node",
      "id": 82344443,
      "lat": 45.8059059,
      "lon": 4.1549063,
      "tags": {
        "addr:postcode": "42510",
        "name": "Nervieux",
        "place": "village",
        "population": "985",
        "ref:FR:SIREN": "214201550",
        "source:population": "INSEE 2016",
        "website": "https://www.nervieux.fr",
        "wikidata": "Q1116468",
        "wikipedia": "fr:Nervieux"
      }
    },
    {
      "type": "node",
      "id": 82344445,
      "lat": 46.1357289,
      "lon": 4.0123273,
      "tags": {
        "addr:postcode": "42640",
        "name": "Noailly",
        "place": "village",
        "population": "805",
        "ref:FR:SIREN": "214201576",
        "source:population": "INSEE 2016",
        "website": "https://noailly.fr",
        "wikidata": "Q1092070",
        "wikipedia": "fr:Noailly"
      }
    },
    {
      "type": "node",
      "id": 82344446,
      "lat": 45.9947000,
      "lon": 4.1290500,
      "tags": {
        "addr:postcode": "42120",
        "name": "Notre-Dame-de-Boisset",
        "place": "village",
        "population": "565",
        "ref:FR:SIREN": "214201618",
        "source:population": "INSEE 2016",
        "website": "https://www.notre-dame-de-boisset.fr",
        "wikidata": "Q1116342",
        "wikipedia": "fr:Notre-Dame-de-Boisset"
      }
    },